var emr = {
"type": "FeatureCollection",
"crs": { "type": "name", "properties": { "name": "urn:ogc:def:crs:OGC:1.3:CRS84" } },
"features": [
{ "type": "Feature", "properties": { "partner": "I-TECH", "county": "Kiambu", "facility_l": "Level 2-Dispensary", "facility_n": "IAP Mangu", "mfl_code": 10019, "status": "Active", "USG_Agency": "USAID", "mode_of_us": "RDE", "emr_in_use": "KenyaEMR", "poc": null, "lats_y": -0.98881, "long_x": 36.95542, "subcounty": "Gatundu North", "cumm_enrol": 645, "active_cli": 353 }, "geometry": { "type": "Point", "coordinates": [ 36.95542, -0.98881 ] } },
{ "type": "Feature", "properties": { "partner": "I-TECH", "county": "Nyandarua", "facility_l": "Level 3-Health centre", "facility_n": "BAMBOO HEALTH CENTRE", "mfl_code": 10044, "status": "Partially active", "USG_Agency": "USAID", "mode_of_us": "Hybrid", "emr_in_use": "KenyaEMR", "poc": "POC with paper", "lats_y": -0.86276, "long_x": 36.56636, "subcounty": "Kinangop", "cumm_enrol": 442, "active_cli": 220 }, "geometry": { "type": "Point", "coordinates": [ 36.56636, -0.86276 ] } },
{ "type": "Feature", "properties": { "partner": "I-TECH", "county": "Kirinyaga", "facility_l": "Level 3-Health centre", "facility_n": "Baricho Health Centre", "mfl_code": 10049, "status": "Active", "USG_Agency": "USAID", "mode_of_us": "POC", "emr_in_use": "KenyaEMR", "poc": "POC with paper", "lats_y": -0.55313, "long_x": 37.23931, "subcounty": "Kirinyaga West", "cumm_enrol": 285, "active_cli": 156 }, "geometry": { "type": "Point", "coordinates": [ 37.23931, -0.55313 ] } },
{ "type": "Feature", "properties": { "partner": "I-TECH", "county": "Kirinyaga", "facility_l": "Level 3-Health centre", "facility_n": "Difathas Health Center", "mfl_code": 10110, "status": "Active", "USG_Agency": "USAID", "mode_of_us": "POC", "emr_in_use": "KenyaEMR", "poc": "POC with paper", "lats_y": -0.55419, "long_x": 37.40213, "subcounty": "Kirinyaga South", "cumm_enrol": 270, "active_cli": 198 }, "geometry": { "type": "Point", "coordinates": [ 37.40213, -0.55419 ] } },
{ "type": "Feature", "properties": { "partner": "I-TECH", "county": "Murang'a", "facility_l": "Level 4-Sub-county hospital", "facility_n": "Gaichanjiru Hospital", "mfl_code": 10199, "status": "Active", "USG_Agency": "USAID", "mode_of_us": "Hybrid", "emr_in_use": "KenyaEMR", "poc": "POC with paper", "lats_y": -0.88479, "long_x": 37.05184, "subcounty": "Kandara", "cumm_enrol": 218, "active_cli": 163 }, "geometry": { "type": "Point", "coordinates": [ 37.05184, -0.88479 ] } },
{ "type": "Feature", "properties": { "partner": "I-TECH", "county": "Murang'a", "facility_l": "Level 2-Dispensary", "facility_n": "Gatunyu Dispensary", "mfl_code": 10234, "status": "Active", "USG_Agency": "CDC", "mode_of_us": "Hybrid", "emr_in_use": "KenyaEMR", "poc": "POC with paper", "lats_y": -0.96056, "long_x": 36.9915, "subcounty": "Gatanga", "cumm_enrol": 216, "active_cli": 181 }, "geometry": { "type": "Point", "coordinates": [ 36.9915, -0.96056 ] } },
{ "type": "Feature", "properties": { "partner": "I-TECH", "county": "Murang'a", "facility_l": "Level 3-Health centre", "facility_n": "Gikui Health Center", "mfl_code": 10256, "status": "Active", "USG_Agency": "CDC", "mode_of_us": "RDE", "emr_in_use": "KenyaEMR", "poc": null, "lats_y": -0.68644, "long_x": 37.01914, "subcounty": null, "cumm_enrol": 159, "active_cli": 96 }, "geometry": { "type": "Point", "coordinates": [ 37.01914, -0.68644 ] } },
{ "type": "Feature", "properties": { "partner": "I-TECH", "county": "Kiambu", "facility_l": "Level 3-Health centre", "facility_n": "Githiga Health Centre", "mfl_code": 10263, "status": "Active", "USG_Agency": "USAID", "mode_of_us": "Hybrid", "emr_in_use": "KenyaEMR", "poc": "POC without paper (paperless)", "lats_y": -1.00083, "long_x": 36.07462, "subcounty": "Kiambu", "cumm_enrol": 289, "active_cli": 264 }, "geometry": { "type": "Point", "coordinates": [ 36.07462, -1.00083 ] } },
{ "type": "Feature", "properties": { "partner": "Palladium", "county": "Nairobi", "facility_l": "Level 2-Dispensary", "facility_n": "Ruiru PTSC", "mfl_code": 10288, "status": "Partially active", "USG_Agency": "USAID", "mode_of_us": "RDE", "emr_in_use": "IQ-CARE", "poc": null, "lats_y": -1.2987985, "long_x": 36.7834389, "subcounty": "Ruiru", "cumm_enrol": 363, "active_cli": 220 }, "geometry": { "type": "Point", "coordinates": [ 36.7834389, -1.2987985 ] } },
{ "type": "Feature", "properties": { "partner": "I-TECH", "county": "Murang'a", "facility_l": "Level 3-Health centre", "facility_n": "Ithanga Health Centre", "mfl_code": 10357, "status": "Partially active", "USG_Agency": "USAID", "mode_of_us": "Hybrid", "emr_in_use": "KenyaEMR", "poc": "POC with paper", "lats_y": -0.9975508, "long_x": 37.3388306, "subcounty": "Thika East", "cumm_enrol": 892, "active_cli": 458 }, "geometry": { "type": "Point", "coordinates": [ 37.3388306, -0.9975508 ] } },
{ "type": "Feature", "properties": { "partner": "I-TECH", "county": "Kirinyaga", "facility_l": "Level 3-Health centre", "facility_n": "Kabare Health  Centre", "mfl_code": 10388, "status": "Active", "USG_Agency": "USAID", "mode_of_us": "POC", "emr_in_use": "KenyaEMR", "poc": "POC with paper", "lats_y": -0.50573, "long_x": 37.32042, "subcounty": "Kirinyaga East", "cumm_enrol": 204, "active_cli": 110 }, "geometry": { "type": "Point", "coordinates": [ 37.32042, -0.50573 ] } },
{ "type": "Feature", "properties": { "partner": "I-TECH", "county": "Kirinyaga", "facility_l": "Level 3-Health centre", "facility_n": "Kabare Health Centre", "mfl_code": 10388, "status": "Active", "USG_Agency": "USAID", "mode_of_us": "POC", "emr_in_use": "KenyaEMR", "poc": "POC with paper", "lats_y": -0.50573, "long_x": 37.32042, "subcounty": "Kirinyaga East", "cumm_enrol": 204, "active_cli": 110 }, "geometry": { "type": "Point", "coordinates": [ 37.32042, -0.50573 ] } },
{ "type": "Feature", "properties": { "partner": "I-TECH", "county": "Kiambu", "facility_l": "Level 4-Sub-county hospital", "facility_n": "Karimoni Mission Hospital", "mfl_code": 10438, "status": "Active", "USG_Agency": "USAID", "mode_of_us": "POC", "emr_in_use": "KenyaEMR", "poc": "POC with paper", "lats_y": -1.1588067, "long_x": 36.9999361, "subcounty": "Thika West", "cumm_enrol": 397, "active_cli": 234 }, "geometry": { "type": "Point", "coordinates": [ 36.9999361, -1.1588067 ] } },
{ "type": "Feature", "properties": { "partner": "I-TECH", "county": "Murang'a", "facility_l": "Level 3-Health centre", "facility_n": "Kambiti Health Centre", "mfl_code": 10445, "status": "Partially active", "USG_Agency": "CDC", "mode_of_us": "RDE", "emr_in_use": "KenyaEMR", "poc": null, "lats_y": -0.8970533, "long_x": 37.1878033, "subcounty": "Murang'a South", "cumm_enrol": 231, "active_cli": 123 }, "geometry": { "type": "Point", "coordinates": [ 37.1878033, -0.8970533 ] } },
{ "type": "Feature", "properties": { "partner": "I-TECH", "county": "Murang'a", "facility_l": "Level 4-Sub-county hospital", "facility_n": "Kandara Sub-County Hospital", "mfl_code": 10459, "status": "Partially active", "USG_Agency": "CDC", "mode_of_us": "Hybrid", "emr_in_use": "KenyaEMR", "poc": "POC without paper (paperless)", "lats_y": -0.90068, "long_x": 37.00274, "subcounty": "Murang'a South", "cumm_enrol": 854, "active_cli": 546 }, "geometry": { "type": "Point", "coordinates": [ 37.00274, -0.90068 ] } },
{ "type": "Feature", "properties": { "partner": "I-TECH", "county": "Murang'a", "facility_l": "Level 3-Health centre", "facility_n": "Kangari Health Center", "mfl_code": 10465, "status": "Active", "USG_Agency": "CDC", "mode_of_us": "RDE", "emr_in_use": "KenyaEMR", "poc": null, "lats_y": -0.78477, "long_x": 36.86789, "subcounty": "Kigumo", "cumm_enrol": 417, "active_cli": 320 }, "geometry": { "type": "Point", "coordinates": [ 36.86789, -0.78477 ] } },
{ "type": "Feature", "properties": { "partner": "I-TECH", "county": "Nyeri", "facility_l": "Level 3-Health centre", "facility_n": "Kiamabara H\/c", "mfl_code": 10530, "status": "Partially active", "USG_Agency": "CDC", "mode_of_us": "RDE", "emr_in_use": "KenyaEMR", "poc": null, "lats_y": -0.5144632, "long_x": 37.0804448, "subcounty": "Mathira East", "cumm_enrol": 123, "active_cli": 97 }, "geometry": { "type": "Point", "coordinates": [ 37.0804448, -0.5144632 ] } },
{ "type": "Feature", "properties": { "partner": "I-TECH", "county": "Kirinyaga", "facility_l": "Level 3-Health centre", "facility_n": "Kiamutugu Health centre", "mfl_code": 10545, "status": "Partially active", "USG_Agency": "USAID", "mode_of_us": "POC", "emr_in_use": "KenyaEMR", "poc": "POC with paper", "lats_y": -0.46852, "long_x": 37.39054, "subcounty": "Kirinyaga East", "cumm_enrol": 265, "active_cli": 135 }, "geometry": { "type": "Point", "coordinates": [ 37.39054, -0.46852 ] } },
{ "type": "Feature", "properties": { "partner": "I-TECH", "county": "Nyeri", "facility_l": "Level 3-Health centre", "facility_n": "Kiganjo Hc", "mfl_code": 10582, "status": "Partially active", "USG_Agency": "USAID", "mode_of_us": "RDE", "emr_in_use": "KenyaEMR", "poc": null, "lats_y": -0.38119, "long_x": 37.00277, "subcounty": "Nyeri Central", "cumm_enrol": 523, "active_cli": 248 }, "geometry": { "type": "Point", "coordinates": [ 37.00277, -0.38119 ] } },
{ "type": "Feature", "properties": { "partner": "I-TECH", "county": "Murang'a", "facility_l": "Level 4-Sub-county hospital", "facility_n": "Kigumo Sub County Hospital", "mfl_code": 10588, "status": "Active", "USG_Agency": "USAID", "mode_of_us": "POC", "emr_in_use": "KenyaEMR", "poc": "POC with paper", "lats_y": -0.8184288, "long_x": 36.9714012, "subcounty": "Murang'a South", "cumm_enrol": 599, "active_cli": 363 }, "geometry": { "type": "Point", "coordinates": [ 36.9714012, -0.8184288 ] } },
{ "type": "Feature", "properties": { "partner": "I-TECH", "county": "Kiambu", "facility_l": "Level 4-Sub-county hospital", "facility_n": "Kihara Sub District Hospital", "mfl_code": 10591, "status": "Active", "USG_Agency": "USAID", "mode_of_us": "Hybrid", "emr_in_use": "KenyaEMR", "poc": "POC with paper", "lats_y": -1.2095494, "long_x": 36.757927, "subcounty": "Kiambu", "cumm_enrol": 1536, "active_cli": 907 }, "geometry": { "type": "Point", "coordinates": [ 36.757927, -1.2095494 ] } },
{ "type": "Feature", "properties": { "partner": "I-TECH", "county": "Kiambu", "facility_l": "Level 4-Sub-county hospital", "facility_n": "Lari Sub County Hospital", "mfl_code": 10655, "status": "Active", "USG_Agency": "USAID", "mode_of_us": "Hybrid", "emr_in_use": "KenyaEMR", "poc": "POC with paper", "lats_y": -1.00873, "long_x": 36.62671, "subcounty": "Lari", "cumm_enrol": 1088, "active_cli": 487 }, "geometry": { "type": "Point", "coordinates": [ 36.62671, -1.00873 ] } },
{ "type": "Feature", "properties": { "partner": "I-TECH", "county": "Kiambu", "facility_l": "Level 3-Health centre", "facility_n": "Linuru Health Centre", "mfl_code": 10661, "status": "Active", "USG_Agency": "CDC", "mode_of_us": "Hybrid", "emr_in_use": "KenyaEMR", "poc": "POC with paper", "lats_y": -1.1106, "long_x": 36.64101, "subcounty": "Limuru", "cumm_enrol": 442, "active_cli": 288 }, "geometry": { "type": "Point", "coordinates": [ 36.64101, -1.1106 ] } },
{ "type": "Feature", "properties": { "partner": "I-TECH", "county": "Kiambu", "facility_l": "Level 3-Health centre", "facility_n": "Limuru Health Centre", "mfl_code": 10661, "status": "Active", "USG_Agency": "CDC", "mode_of_us": "Hybrid", "emr_in_use": "KenyaEMR", "poc": "POC with paper", "lats_y": -1.2218169, "long_x": 36.7140872, "subcounty": "Limuru", "cumm_enrol": 422, "active_cli": 288 }, "geometry": { "type": "Point", "coordinates": [ 36.7140872, -1.2218169 ] } },
{ "type": "Feature", "properties": { "partner": "I-TECH", "county": "Murang'a", "facility_l": "Level 3-Health centre", "facility_n": "Makuyu Health Centre", "mfl_code": 10674, "status": "Active", "USG_Agency": "USAID", "mode_of_us": "Hybrid", "emr_in_use": "KenyaEMR", "poc": "POC with paper", "lats_y": -0.89672, "long_x": 37.18753, "subcounty": "Murang'a South", "cumm_enrol": 1173, "active_cli": 790 }, "geometry": { "type": "Point", "coordinates": [ 37.18753, -0.89672 ] } },
{ "type": "Feature", "properties": { "partner": "I-TECH", "county": "Murang'a", "facility_l": "Level 4-Sub-county hospital", "facility_n": "Maragua Sub County Hospital", "mfl_code": 10686, "status": "Partially active", "USG_Agency": "USAID", "mode_of_us": "Hybrid", "emr_in_use": "KenyaEMR", "poc": "POC with paper", "lats_y": -0.8974535, "long_x": 37.1254324, "subcounty": "Murang'a South", "cumm_enrol": 7711, "active_cli": 2825 }, "geometry": { "type": "Point", "coordinates": [ 37.1254324, -0.8974535 ] } },
{ "type": "Feature", "properties": { "partner": "I-TECH", "county": "Kiambu", "facility_l": "Level 4-Sub-county hospital", "facility_n": "Mary Help Of the Sick Mission Hospital", "mfl_code": 10698, "status": "Active", "USG_Agency": "USAID", "mode_of_us": "Hybrid", "emr_in_use": "KenyaEMR", "poc": "POC with paper", "lats_y": -0.95761, "long_x": 36.9015, "subcounty": "Thika West", "cumm_enrol": 796, "active_cli": 219 }, "geometry": { "type": "Point", "coordinates": [ 36.9015, -0.95761 ] } },
{ "type": "Feature", "properties": { "partner": "I-TECH", "county": "Nyeri", "facility_l": "Level 4-Sub-county hospital", "facility_n": "Mary Immaculate Hospital", "mfl_code": 10700, "status": "Active", "USG_Agency": "USAID", "mode_of_us": "Hybrid", "emr_in_use": "KenyaEMR", "poc": "POC with paper", "lats_y": -0.3300697, "long_x": 36.9049008, "subcounty": "Kieni West", "cumm_enrol": 502, "active_cli": 226 }, "geometry": { "type": "Point", "coordinates": [ 36.9049008, -0.3300697 ] } },
{ "type": "Feature", "properties": { "partner": "I-TECH", "county": "Nyandarua", "facility_l": "Level 3-Health centre", "facility_n": "Mirangine", "mfl_code": 10732, "status": "Partially active", "USG_Agency": "USAID", "mode_of_us": "Hybrid", "emr_in_use": "KenyaEMR", "poc": "POC with paper", "lats_y": -0.17712, "long_x": 36.2441, "subcounty": "Mirangini", "cumm_enrol": 494, "active_cli": 179 }, "geometry": { "type": "Point", "coordinates": [ 36.2441, -0.17712 ] } },
{ "type": "Feature", "properties": { "partner": "I-TECH", "county": "Nyandarua", "facility_l": "Level 3-Health centre", "facility_n": "Mirangine", "mfl_code": 10732, "status": "Partially active", "USG_Agency": "USAID", "mode_of_us": "Hybrid", "emr_in_use": "KenyaEMR", "poc": "POC with paper", "lats_y": -0.1814003, "long_x": 36.238845, "subcounty": "Mirangini", "cumm_enrol": 494, "active_cli": 179 }, "geometry": { "type": "Point", "coordinates": [ 36.238845, -0.1814003 ] } },
{ "type": "Feature", "properties": { "partner": "I-TECH", "county": "Kirinyaga", "facility_l": "Other", "facility_n": "Ack Mt Kenya Hospital", "mfl_code": 10738, "status": "Active", "USG_Agency": "USAID", "mode_of_us": "POC", "emr_in_use": "KenyaEMR", "poc": "POC with paper", "lats_y": -0.49185, "long_x": 37.26474, "subcounty": "Kirinyaga Central", "cumm_enrol": 393, "active_cli": 243 }, "geometry": { "type": "Point", "coordinates": [ 37.26474, -0.49185 ] } },
{ "type": "Feature", "properties": { "partner": "I-TECH", "county": "Nyeri", "facility_l": "Level 2-Dispensary", "facility_n": "Mugunda Catholic Dispensary", "mfl_code": 10750, "status": "Active", "USG_Agency": "USAID", "mode_of_us": "Hybrid", "emr_in_use": "KenyaEMR", "poc": "POC with paper", "lats_y": -0.1469257, "long_x": 36.7177487, "subcounty": "Kieni West", "cumm_enrol": 612, "active_cli": 353 }, "geometry": { "type": "Point", "coordinates": [ 36.7177487, -0.1469257 ] } },
{ "type": "Feature", "properties": { "partner": "I-TECH", "county": "Kiambu", "facility_l": "Level 4-Sub-county hospital", "facility_n": "St.  Mulumba Mission Hospital", "mfl_code": 10765, "status": "Active", "USG_Agency": "USAID", "mode_of_us": "Hybrid", "emr_in_use": "KenyaEMR", "poc": "POC with paper", "lats_y": -0.72917, "long_x": 37.1522183, "subcounty": "Thika West", "cumm_enrol": 1069, "active_cli": 778 }, "geometry": { "type": "Point", "coordinates": [ 37.1522183, -0.72917 ] } },
{ "type": "Feature", "properties": { "partner": "I-TECH", "county": "Kiambu", "facility_l": "Level 3-Health centre", "facility_n": "Munyu Health Centre", "mfl_code": 10774, "status": "Partially active", "USG_Agency": "USAID", "mode_of_us": "RDE", "emr_in_use": "KenyaEMR", "poc": null, "lats_y": -1.11445, "long_x": 37.16934, "subcounty": "Thika East", "cumm_enrol": 249, "active_cli": 94 }, "geometry": { "type": "Point", "coordinates": [ 37.16934, -1.11445 ] } },
{ "type": "Feature", "properties": { "partner": "I-TECH", "county": "Nyandarua", "facility_l": "Level 3-Health centre", "facility_n": "Murungaru Health Centre", "mfl_code": 10786, "status": "Partially active", "USG_Agency": "USAID", "mode_of_us": "Hybrid", "emr_in_use": "KenyaEMR", "poc": "POC with paper", "lats_y": -0.04882, "long_x": 36.60566, "subcounty": "Kinangop", "cumm_enrol": 325, "active_cli": 182 }, "geometry": { "type": "Point", "coordinates": [ 36.60566, -0.04882 ] } },
{ "type": "Feature", "properties": { "partner": "I-TECH", "county": "Nyeri", "facility_l": "Level 3-Health centre", "facility_n": "Mweiga HC", "mfl_code": 10809, "status": "Active", "USG_Agency": "CDC", "mode_of_us": "POC", "emr_in_use": "KenyaEMR", "poc": "POC with paper", "lats_y": -0.330618, "long_x": 36.9019313, "subcounty": "Kieni West", "cumm_enrol": 158, "active_cli": 132 }, "geometry": { "type": "Point", "coordinates": [ 36.9019313, -0.330618 ] } },
{ "type": "Feature", "properties": { "partner": "I-TECH", "county": "Nyandarua", "facility_l": "Level 3-Health centre", "facility_n": "Ndaragwa", "mfl_code": 10829, "status": "Active", "USG_Agency": "USAID", "mode_of_us": "POC", "emr_in_use": "KenyaEMR", "poc": "POC with paper", "lats_y": -0.05697, "long_x": 36.53136, "subcounty": "Nyandarua North", "cumm_enrol": 605, "active_cli": 407 }, "geometry": { "type": "Point", "coordinates": [ 36.53136, -0.05697 ] } },
{ "type": "Feature", "properties": { "partner": "I-TECH", "county": "Kiambu", "facility_l": "Level 3-Health centre", "facility_n": "Ndeiya health Centre", "mfl_code": 10831, "status": "Active", "USG_Agency": "USAID", "mode_of_us": "POC", "emr_in_use": "KenyaEMR", "poc": "POC with paper", "lats_y": -1.15348, "long_x": 36.59682, "subcounty": "Limuru", "cumm_enrol": 225, "active_cli": 111 }, "geometry": { "type": "Point", "coordinates": [ 36.59682, -1.15348 ] } },
{ "type": "Feature", "properties": { "partner": "I-TECH", "county": "Kiambu", "facility_l": "Level 3-Health centre", "facility_n": "Ndeiya Health Centre", "mfl_code": 10831, "status": "Active", "USG_Agency": "USAID", "mode_of_us": "POC", "emr_in_use": "KenyaEMR", "poc": "POC with paper", "lats_y": -1.0238968, "long_x": 36.6247435, "subcounty": "Limuru", "cumm_enrol": 245, "active_cli": 103 }, "geometry": { "type": "Point", "coordinates": [ 36.6247435, -1.0238968 ] } },
{ "type": "Feature", "properties": { "partner": "I-TECH", "county": "Nyeri", "facility_l": "Level 3-Health centre", "facility_n": "Ngorano H\/c", "mfl_code": 10870, "status": "Partially active", "USG_Agency": "USAID", "mode_of_us": "Hybrid", "emr_in_use": "KenyaEMR", "poc": "POC with paper", "lats_y": -0.41278, "long_x": 37.06437, "subcounty": "Mathira West", "cumm_enrol": 231, "active_cli": 136 }, "geometry": { "type": "Point", "coordinates": [ 37.06437, -0.41278 ] } },
{ "type": "Feature", "properties": { "partner": "I-TECH", "county": "Nyeri", "facility_l": "Level 3-Health centre", "facility_n": "Nyeri Town Health Centre", "mfl_code": 10905, "status": "Partially active", "USG_Agency": "CDC", "mode_of_us": "RDE", "emr_in_use": "KenyaEMR", "poc": null, "lats_y": -0.25383, "long_x": 36.56996, "subcounty": "Nyeri Central", "cumm_enrol": 332, "active_cli": 234 }, "geometry": { "type": "Point", "coordinates": [ 36.56996, -0.25383 ] } },
{ "type": "Feature", "properties": { "partner": "I-TECH", "county": "Murang'a", "facility_l": "Level 3-Health centre", "facility_n": "Sabasaba Health Center", "mfl_code": 10987, "status": "Partially active", "USG_Agency": "USAID", "mode_of_us": "Hybrid", "emr_in_use": "KenyaEMR", "poc": "POC with paper", "lats_y": -0.87786, "long_x": 37.13685, "subcounty": "Murang'a South", "cumm_enrol": 415, "active_cli": 307 }, "geometry": { "type": "Point", "coordinates": [ 37.13685, -0.87786 ] } },
{ "type": "Feature", "properties": { "partner": "I-TECH", "county": "Nyandarua", "facility_l": "Level 3-Health centre", "facility_n": "Shamata Health Centre", "mfl_code": 11004, "status": "Partially active", "USG_Agency": "USAID", "mode_of_us": "Hybrid", "emr_in_use": "KenyaEMR", "poc": "POC with paper", "lats_y": -0.19619, "long_x": 36.5055, "subcounty": "Nyandarua North", "cumm_enrol": 281, "active_cli": 164 }, "geometry": { "type": "Point", "coordinates": [ 36.5055, -0.19619 ] } },
{ "type": "Feature", "properties": { "partner": "I-TECH", "county": "Nyandarua", "facility_l": "Level 3-Health centre", "facility_n": "Silibwet H\/c", "mfl_code": 11009, "status": "Partially active", "USG_Agency": "USAID", "mode_of_us": "Hybrid", "emr_in_use": "KenyaEMR", "poc": "POC with paper", "lats_y": -0.03867, "long_x": 36.29032, "subcounty": "Nyandarua West", "cumm_enrol": 203, "active_cli": 116 }, "geometry": { "type": "Point", "coordinates": [ 36.29032, -0.03867 ] } },
{ "type": "Feature", "properties": { "partner": "I-TECH", "county": "Kiambu", "facility_l": "Level 2-Dispensary", "facility_n": "St Joseph Catholic Dispensary", "mfl_code": 11041, "status": "Active", "USG_Agency": "CDC", "mode_of_us": "Hybrid", "emr_in_use": "KenyaEMR", "poc": "POC with paper", "lats_y": -1.19973, "long_x": 36.92644, "subcounty": "Ruiru", "cumm_enrol": 588, "active_cli": 314 }, "geometry": { "type": "Point", "coordinates": [ 36.92644, -1.19973 ] } },
{ "type": "Feature", "properties": { "partner": "I-TECH", "county": "Kiambu", "facility_l": "Level 3-Health centre", "facility_n": "Uthiru Health Centre", "mfl_code": 11141, "status": "Active", "USG_Agency": "USAID", "mode_of_us": "Hybrid", "emr_in_use": "KenyaEMR", "poc": "POC with paper", "lats_y": -1.1080124, "long_x": 36.6436326, "subcounty": "Kikuyu", "cumm_enrol": 381, "active_cli": 129 }, "geometry": { "type": "Point", "coordinates": [ 36.6436326, -1.1080124 ] } },
{ "type": "Feature", "properties": { "partner": "I-TECH", "county": "Nyandarua", "facility_l": "Level 3-Health centre", "facility_n": "Wanjohi Health Centre", "mfl_code": 11173, "status": "Partially active", "USG_Agency": "USAID", "mode_of_us": "Hybrid", "emr_in_use": "KenyaEMR", "poc": "POC with paper", "lats_y": -0.33505, "long_x": 36.52009, "subcounty": "Kipipiri", "cumm_enrol": 296, "active_cli": 218 }, "geometry": { "type": "Point", "coordinates": [ 36.52009, -0.33505 ] } },
{ "type": "Feature", "properties": { "partner": "Palladium", "county": "Kilifi", "facility_l": "Level 4-Sub-county hospital", "facility_n": "BAMBA SUB COUNTY HOSPITAL", "mfl_code": 11237, "status": "Active", "USG_Agency": null, "mode_of_us": "Hybrid", "emr_in_use": "IQ-CARE", "poc": "POC with paper", "lats_y": -3.8008059, "long_x": 39.3959764, "subcounty": "Ganze", "cumm_enrol": 771, "active_cli": 671 }, "geometry": { "type": "Point", "coordinates": [ 39.3959764, -3.8008059 ] } },
{ "type": "Feature", "properties": { "partner": "Palladium", "county": "Taita-Taveta", "facility_l": "Level 2-Dispensary", "facility_n": "BUGUTA DISPENSARY", "mfl_code": 11262, "status": "Active", "USG_Agency": "USAID", "mode_of_us": "Hybrid", "emr_in_use": "IQ-CARE", "poc": "POC with paper", "lats_y": -3.68821, "long_x": 38.66798, "subcounty": "Voi", "cumm_enrol": 311, "active_cli": 165 }, "geometry": { "type": "Point", "coordinates": [ 38.66798, -3.68821 ] } },
{ "type": "Feature", "properties": { "partner": "Palladium", "county": "Tana River", "facility_l": "Level 4-Sub-county hospital", "facility_n": "Bura Sub County Hospital", "mfl_code": 11264, "status": "Active", "USG_Agency": "USAID", "mode_of_us": "Hybrid", "emr_in_use": "IQ-CARE", "poc": "POC with paper", "lats_y": -1.52146, "long_x": 39.88363, "subcounty": "Bura", "cumm_enrol": 142, "active_cli": 96 }, "geometry": { "type": "Point", "coordinates": [ 39.88363, -1.52146 ] } },
{ "type": "Feature", "properties": { "partner": "Palladium", "county": "Mombasa", "facility_l": "Level 5-County\/Refferal hospital", "facility_n": "COAST GENERAL HOSPITAL", "mfl_code": 11289, "status": "Active", "USG_Agency": "USAID", "mode_of_us": "RDE", "emr_in_use": "FUNSOFT", "poc": null, "lats_y": -4.02796, "long_x": 39.68619, "subcounty": "Mvita", "cumm_enrol": 18883, "active_cli": 8457 }, "geometry": { "type": "Point", "coordinates": [ 39.68619, -4.02796 ] } },
{ "type": "Feature", "properties": { "partner": "Palladium", "county": "Mombasa", "facility_l": "Level 2-Dispensary", "facility_n": "KING'ORANI DISPENSARY", "mfl_code": 11303, "status": "Active", "USG_Agency": "CDC", "mode_of_us": "Hybrid", "emr_in_use": "IQ-CARE", "poc": "POC with paper", "lats_y": -4.048717, "long_x": 39.656006, "subcounty": "Mvita", "cumm_enrol": 239, "active_cli": 59 }, "geometry": { "type": "Point", "coordinates": [ 39.656006, -4.048717 ] } },
{ "type": "Feature", "properties": { "partner": "Palladium", "county": "Kwale", "facility_l": "Level 3-Health centre", "facility_n": "Diani Health Centre", "mfl_code": 11304, "status": "Active", "USG_Agency": "USAID", "mode_of_us": "POC", "emr_in_use": "IQ-CARE", "poc": "POC without paper (paperless)", "lats_y": -4.02158, "long_x": 39.7187251, "subcounty": "Msambweni", "cumm_enrol": 1955, "active_cli": 759 }, "geometry": { "type": "Point", "coordinates": [ 39.7187251, -4.02158 ] } },
{ "type": "Feature", "properties": { "partner": "Palladium", "county": "Mombasa", "facility_l": "Level 3-Health centre", "facility_n": "BAMBURI HEALTH CENTRE", "mfl_code": 11319, "status": "Partially active", "USG_Agency": "USAID", "mode_of_us": "RDE", "emr_in_use": "IQ-CARE", "poc": null, "lats_y": -4.0042634, "long_x": 39.6961512, "subcounty": "Kisauni", "cumm_enrol": 1491, "active_cli": 1016 }, "geometry": { "type": "Point", "coordinates": [ 39.6961512, -4.0042634 ] } },
{ "type": "Feature", "properties": { "partner": "Palladium", "county": "Mombasa", "facility_l": "Other", "facility_n": "SAYYID FATUMA HOSPITAL", "mfl_code": 11319, "status": "Active", "USG_Agency": "USAID", "mode_of_us": "POC", "emr_in_use": "IQ-CARE", "poc": "POC without paper (paperless)", "lats_y": -3.7914148, "long_x": 39.3557997, "subcounty": "Kisauni", "cumm_enrol": 286, "active_cli": 174 }, "geometry": { "type": "Point", "coordinates": [ 39.3557997, -3.7914148 ] } },
{ "type": "Feature", "properties": { "partner": "Palladium", "county": "Lamu", "facility_l": "Level 4-Sub-county hospital", "facility_n": "FAZA SUB COUNTY HOSPITAL", "mfl_code": 11373, "status": "Partially active", "USG_Agency": "USAID", "mode_of_us": "RDE", "emr_in_use": "IQ-CARE", "poc": null, "lats_y": -2.05794, "long_x": 41.11075, "subcounty": "Lamu East", "cumm_enrol": 77, "active_cli": 28 }, "geometry": { "type": "Point", "coordinates": [ 41.11075, -2.05794 ] } },
{ "type": "Feature", "properties": { "partner": "Palladium", "county": "Tana River", "facility_l": "Level 3-Health centre", "facility_n": "GARSEN HEALTH CENTRE", "mfl_code": 11385, "status": "Active", "USG_Agency": "USAID", "mode_of_us": "POC", "emr_in_use": "IQ-CARE", "poc": "POC without paper (paperless)", "lats_y": -2.2709, "long_x": 40.10764, "subcounty": "Tana Delta", "cumm_enrol": 441, "active_cli": 164 }, "geometry": { "type": "Point", "coordinates": [ 40.10764, -2.2709 ] } },
{ "type": "Feature", "properties": { "partner": "Palladium", "county": "Mombasa", "facility_l": "Level 2-Dispensary", "facility_n": "SHIMO LA TEWA ANNEX", "mfl_code": 11393, "status": "Partially active", "USG_Agency": "CDC", "mode_of_us": "RDE", "emr_in_use": "IQ-CARE", "poc": null, "lats_y": -3.9625967, "long_x": 39.7260058, "subcounty": "Kisauni", "cumm_enrol": 653, "active_cli": 217 }, "geometry": { "type": "Point", "coordinates": [ 39.7260058, -3.9625967 ] } },
{ "type": "Feature", "properties": { "partner": "Palladium", "county": "Kilifi", "facility_l": "Level 2-Dispensary", "facility_n": "GK PRISONS DISPENSARY", "mfl_code": 11394, "status": "Partially active", "USG_Agency": "CDC", "mode_of_us": "RDE", "emr_in_use": "IQ-CARE", "poc": null, "lats_y": -3.2209928, "long_x": 40.1124695, "subcounty": "Malindi", "cumm_enrol": 409, "active_cli": 340 }, "geometry": { "type": "Point", "coordinates": [ 40.1124695, -3.2209928 ] } },
{ "type": "Feature", "properties": { "partner": "Palladium", "county": "Mombasa", "facility_l": "Level 3-Health centre", "facility_n": "SHIMO LA TEWA HEALTH CENTRE", "mfl_code": 11395, "status": "Active", "USG_Agency": "CDC", "mode_of_us": "RDE", "emr_in_use": "IQ-CARE", "poc": null, "lats_y": -3.9596091, "long_x": 39.724844, "subcounty": "Kisauni", "cumm_enrol": 2887, "active_cli": 603 }, "geometry": { "type": "Point", "coordinates": [ 39.724844, -3.9596091 ] } },
{ "type": "Feature", "properties": { "partner": "Palladium", "county": "Tana River", "facility_l": "Level 2-Dispensary", "facility_n": "Hola GK Dispensary", "mfl_code": 11398, "status": "Active", "USG_Agency": "CDC", "mode_of_us": "Hybrid", "emr_in_use": "IQ-CARE", "poc": "POC with paper", "lats_y": -3.4065108, "long_x": 38.086424, "subcounty": "Galole", "cumm_enrol": 27, "active_cli": 15 }, "geometry": { "type": "Point", "coordinates": [ 38.086424, -3.4065108 ] } },
{ "type": "Feature", "properties": { "partner": "Palladium", "county": "Tana River", "facility_l": "Level 5-County\/Refferal hospital", "facility_n": "HOLA COUNTY REFERAL HOSPIAL", "mfl_code": 11411, "status": "Active", "USG_Agency": "USAID", "mode_of_us": "POC", "emr_in_use": "IQ-CARE", "poc": "POC without paper (paperless)", "lats_y": -1.49872, "long_x": 40.03017, "subcounty": "Galole", "cumm_enrol": 701, "active_cli": 401 }, "geometry": { "type": "Point", "coordinates": [ 40.03017, -1.49872 ] } },
{ "type": "Feature", "properties": { "partner": "Palladium", "county": "Kilifi", "facility_l": "Level 4-Sub-county hospital", "facility_n": "JIBANA SUB COUNTY HOSPITAL", "mfl_code": 11432, "status": "Active", "USG_Agency": "USAID", "mode_of_us": "RDE", "emr_in_use": "IQ-CARE", "poc": null, "lats_y": -3.83116, "long_x": 39.68587, "subcounty": "Kaloleni", "cumm_enrol": 160, "active_cli": 158 }, "geometry": { "type": "Point", "coordinates": [ 39.68587, -3.83116 ] } },
{ "type": "Feature", "properties": { "partner": "Palladium", "county": "Mombasa", "facility_l": "Other", "facility_n": "JOCHAM HOSPITAL", "mfl_code": 11434, "status": "Active", "USG_Agency": "CDC", "mode_of_us": "POC", "emr_in_use": "IQ-CARE", "poc": "POC without paper (paperless)", "lats_y": -4.0373115, "long_x": 39.6793639, "subcounty": "Kisauni", "cumm_enrol": 288, "active_cli": 189 }, "geometry": { "type": "Point", "coordinates": [ 39.6793639, -4.0373115 ] } },
{ "type": "Feature", "properties": { "partner": "Palladium", "county": "Mombasa", "facility_l": "Level 3-Health centre", "facility_n": "JOMVU MODEL HEALTH CENTRE", "mfl_code": 11436, "status": "Active", "USG_Agency": "CDC", "mode_of_us": "RDE", "emr_in_use": "IQ-CARE", "poc": null, "lats_y": -4.00449, "long_x": 39.59929, "subcounty": "Changamwe", "cumm_enrol": 470, "active_cli": 352 }, "geometry": { "type": "Point", "coordinates": [ 39.59929, -4.00449 ] } },
{ "type": "Feature", "properties": { "partner": "Palladium", "county": "Taita-Taveta", "facility_l": "Level 3-Health centre", "facility_n": "KASIGAU HEALTH CENTRE", "mfl_code": 11455, "status": "Active", "USG_Agency": "USAID", "mode_of_us": "Hybrid", "emr_in_use": "IQ-CARE", "poc": "POC without paper (paperless)", "lats_y": -3.81351, "long_x": 38.63989, "subcounty": "Voi", "cumm_enrol": 182, "active_cli": 92 }, "geometry": { "type": "Point", "coordinates": [ 38.63989, -3.81351 ] } },
{ "type": "Feature", "properties": { "partner": "Palladium", "county": "Mombasa", "facility_l": "Level 4-Sub-county hospital", "facility_n": "Kenya Navy (MIR) Hospital", "mfl_code": 11459, "status": "Partially active", "USG_Agency": "DOD", "mode_of_us": "Hybrid", "emr_in_use": "IQ-CARE", "poc": "POC with paper", "lats_y": -4.0744134, "long_x": 39.6370193, "subcounty": "Likoni", "cumm_enrol": 314, "active_cli": 187 }, "geometry": { "type": "Point", "coordinates": [ 39.6370193, -4.0744134 ] } },
{ "type": "Feature", "properties": { "partner": "Palladium", "county": "Kwale", "facility_l": "Level 4-Sub-county hospital", "facility_n": "KINANGO SUB COUNTY HOSPITAL", "mfl_code": 11480, "status": "Active", "USG_Agency": "USAID", "mode_of_us": "Hybrid", "emr_in_use": "IQ-CARE", "poc": "POC with paper", "lats_y": -4.1395, "long_x": 39.31233, "subcounty": "Kinango", "cumm_enrol": 2231, "active_cli": 864 }, "geometry": { "type": "Point", "coordinates": [ 39.31233, -4.1395 ] } },
{ "type": "Feature", "properties": { "partner": "Palladium", "county": "Tana River", "facility_l": "Level 3-Health centre", "facility_n": "Kipini HC", "mfl_code": 11484, "status": "Active", "USG_Agency": "USAID", "mode_of_us": "POC", "emr_in_use": "IQ-CARE", "poc": "POC without paper (paperless)", "lats_y": -3.3912555, "long_x": 37.6768061, "subcounty": "Tana Delta", "cumm_enrol": 258, "active_cli": 148 }, "geometry": { "type": "Point", "coordinates": [ 37.6768061, -3.3912555 ] } },
{ "type": "Feature", "properties": { "partner": "Palladium", "county": "Mombasa", "facility_l": "Level 3-Health centre", "facility_n": "Kongowea HC", "mfl_code": 11499, "status": "Active", "USG_Agency": "USAID", "mode_of_us": "Hybrid", "emr_in_use": "IQ-CARE", "poc": "POC with paper", "lats_y": -4.042617, "long_x": 39.6816639, "subcounty": "Kisauni", "cumm_enrol": 1771, "active_cli": 1044 }, "geometry": { "type": "Point", "coordinates": [ 39.6816639, -4.042617 ] } },
{ "type": "Feature", "properties": { "partner": "Palladium", "county": "Kwale", "facility_l": "Level 4-Sub-county hospital", "facility_n": "Kwale Sub County Hospital", "mfl_code": 11507, "status": "Active", "USG_Agency": "USAID", "mode_of_us": "Hybrid", "emr_in_use": "IQ-CARE", "poc": "POC with paper", "lats_y": -4.0216325, "long_x": 39.7187442, "subcounty": "Matuga", "cumm_enrol": 1719, "active_cli": 484 }, "geometry": { "type": "Point", "coordinates": [ 39.7187442, -4.0216325 ] } },
{ "type": "Feature", "properties": { "partner": "Palladium", "county": "Lamu", "facility_l": "Level 5-County\/Refferal hospital", "facility_n": "LAMU COUNTY REFERRAL HOSPITAL", "mfl_code": 11512, "status": "Active", "USG_Agency": "USAID", "mode_of_us": "Hybrid", "emr_in_use": "IQ-CARE", "poc": "POC with paper", "lats_y": -2.27856, "long_x": 40.90677, "subcounty": "Lamu West", "cumm_enrol": 995, "active_cli": 537 }, "geometry": { "type": "Point", "coordinates": [ 40.90677, -2.27856 ] } },
{ "type": "Feature", "properties": { "partner": "Palladium", "county": "Lamu", "facility_l": "Level 5-County\/Refferal hospital", "facility_n": "Lamu District Hospital", "mfl_code": 11512, "status": "Active", "USG_Agency": "USAID", "mode_of_us": "RDE", "emr_in_use": "IQ-CARE", "poc": null, "lats_y": -2.27856, "long_x": 40.90677, "subcounty": "Lamu West", "cumm_enrol": 942, "active_cli": 276 }, "geometry": { "type": "Point", "coordinates": [ 40.90677, -2.27856 ] } },
{ "type": "Feature", "properties": { "partner": "Palladium", "county": "Mombasa", "facility_l": "Level 4-Sub-county hospital", "facility_n": "LIKONI SUB COUNTY HOSPITAL", "mfl_code": 11522, "status": "Active", "USG_Agency": "USAID", "mode_of_us": "POC", "emr_in_use": "IQ-CARE", "poc": "POC with paper", "lats_y": -4.0834447, "long_x": 39.6415442, "subcounty": "Likoni", "cumm_enrol": 4646, "active_cli": 1425 }, "geometry": { "type": "Point", "coordinates": [ 39.6415442, -4.0834447 ] } },
{ "type": "Feature", "properties": { "partner": "Palladium", "county": "Kwale", "facility_l": "Level 4-Sub-county hospital", "facility_n": "Lungalunga Sub County Hospital", "mfl_code": 11526, "status": "Active", "USG_Agency": "USAID", "mode_of_us": "Hybrid", "emr_in_use": "IQ-CARE", "poc": "POC with paper", "lats_y": -4.021683, "long_x": 39.7187724, "subcounty": "Msambweni", "cumm_enrol": 1068, "active_cli": 255 }, "geometry": { "type": "Point", "coordinates": [ 39.7187724, -4.021683 ] } },
{ "type": "Feature", "properties": { "partner": "Palladium", "county": "Tana River", "facility_l": "Level 3-Health centre", "facility_n": "MADOGO HEALTH CENTRE", "mfl_code": 11533, "status": "Active", "USG_Agency": "USAID", "mode_of_us": "RDE", "emr_in_use": "IQ-CARE", "poc": null, "lats_y": -0.59128, "long_x": 39.12334, "subcounty": "Bura", "cumm_enrol": 184, "active_cli": 79 }, "geometry": { "type": "Point", "coordinates": [ 39.12334, -0.59128 ] } },
{ "type": "Feature", "properties": { "partner": "Palladium", "county": "Kilifi", "facility_l": "Level 4-Sub-county hospital", "facility_n": "MALINDI SUB COUNTY HOSPITAL", "mfl_code": 11555, "status": "Partially active", "USG_Agency": "USAID", "mode_of_us": "RDE", "emr_in_use": "IQ-CARE", "poc": null, "lats_y": -3.2570242, "long_x": 40.0727607, "subcounty": "Malindi", "cumm_enrol": 9760, "active_cli": 2895 }, "geometry": { "type": "Point", "coordinates": [ 40.0727607, -3.2570242 ] } },
{ "type": "Feature", "properties": { "partner": "Palladium", "county": "Taita-Taveta", "facility_l": "Level 2-Dispensary", "facility_n": "MANYANI DISPENSARY", "mfl_code": 11561, "status": "Active", "USG_Agency": "CDC", "mode_of_us": "Hybrid", "emr_in_use": "IQ-CARE", "poc": "POC with paper", "lats_y": -3.09496, "long_x": 38.48972, "subcounty": "Voi", "cumm_enrol": 11649, "active_cli": 47 }, "geometry": { "type": "Point", "coordinates": [ 38.48972, -3.09496 ] } },
{ "type": "Feature", "properties": { "partner": "Palladium", "county": "Kilifi", "facility_l": "Level 4-Sub-county hospital", "facility_n": "MARIAKANI SUB-COUNTY", "mfl_code": 11566, "status": "Active", "USG_Agency": "USAID", "mode_of_us": "RDE", "emr_in_use": "IQ-CARE", "poc": null, "lats_y": -3.7883925, "long_x": 39.8204478, "subcounty": "Kaloleni", "cumm_enrol": 3512, "active_cli": 1175 }, "geometry": { "type": "Point", "coordinates": [ 39.8204478, -3.7883925 ] } },
{ "type": "Feature", "properties": { "partner": "Palladium", "county": "Taita-Taveta", "facility_l": "Level 3-Health centre", "facility_n": "Mbale HC", "mfl_code": 11589, "status": "Active", "USG_Agency": "USAID", "mode_of_us": "POC", "emr_in_use": "IQ-CARE", "poc": "POC with paper", "lats_y": -3.5342503, "long_x": 38.7174656, "subcounty": "Wundanyi", "cumm_enrol": 49, "active_cli": 40 }, "geometry": { "type": "Point", "coordinates": [ 38.7174656, -3.5342503 ] } },
{ "type": "Feature", "properties": { "partner": "Palladium", "county": "Mombasa", "facility_l": "Other", "facility_n": "MEWA HOSPITAL", "mfl_code": 11600, "status": "Active", "USG_Agency": "USAID", "mode_of_us": "RDE", "emr_in_use": "IQ-CARE", "poc": null, "lats_y": -4.0834416, "long_x": 39.5836813, "subcounty": "Mvita", "cumm_enrol": 1375, "active_cli": 800 }, "geometry": { "type": "Point", "coordinates": [ 39.5836813, -4.0834416 ] } },
{ "type": "Feature", "properties": { "partner": "Palladium", "county": "Mombasa", "facility_l": "Level 2-Dispensary", "facility_n": "Mikindani Dispensary", "mfl_code": 11613, "status": "Active", "USG_Agency": "CDC", "mode_of_us": "Hybrid", "emr_in_use": "IQ-CARE", "poc": "POC with paper", "lats_y": -4.0216646, "long_x": 39.7187659, "subcounty": "Changamwe", "cumm_enrol": 1310, "active_cli": 743 }, "geometry": { "type": "Point", "coordinates": [ 39.7187659, -4.0216646 ] } },
{ "type": "Feature", "properties": { "partner": "Palladium", "county": "Mombasa", "facility_l": "Level 2-Dispensary", "facility_n": "Mikindani MCM Dispensary", "mfl_code": 11613, "status": "Active", "USG_Agency": "CDC", "mode_of_us": "Hybrid", "emr_in_use": "IQ-CARE", "poc": "POC with paper", "lats_y": -4.00509, "long_x": 39.62816, "subcounty": "Changamwe", "cumm_enrol": 1310, "active_cli": 743 }, "geometry": { "type": "Point", "coordinates": [ 39.62816, -4.00509 ] } },
{ "type": "Feature", "properties": { "partner": "Palladium", "county": "Mombasa", "facility_l": "Other", "facility_n": "MIKINDANI CLINIC", "mfl_code": 11615, "status": "Partially active", "USG_Agency": "USAID", "mode_of_us": "RDE", "emr_in_use": "IQ-CARE", "poc": null, "lats_y": -4.002494, "long_x": 39.630067, "subcounty": "Changamwe", "cumm_enrol": 132, "active_cli": 67 }, "geometry": { "type": "Point", "coordinates": [ 39.630067, -4.002494 ] } },
{ "type": "Feature", "properties": { "partner": "Palladium", "county": "Kwale", "facility_l": "Level 3-Health centre", "facility_n": "Mkongani Health Centre", "mfl_code": 11629, "status": "Active", "USG_Agency": "USAID", "mode_of_us": "POC", "emr_in_use": "IQ-CARE", "poc": "POC without paper (paperless)", "lats_y": -4.0216517, "long_x": 39.7187616, "subcounty": "Matuga", "cumm_enrol": 360, "active_cli": 242 }, "geometry": { "type": "Point", "coordinates": [ 39.7187616, -4.0216517 ] } },
{ "type": "Feature", "properties": { "partner": "Palladium", "county": "Lamu", "facility_l": "Level 2-Dispensary", "facility_n": "Mkunumbi Dispensary", "mfl_code": 11631, "status": "Active", "USG_Agency": "USAID", "mode_of_us": "Hybrid", "emr_in_use": "IQ-CARE", "poc": "POC with paper", "lats_y": -3.4388081, "long_x": 38.5077443, "subcounty": "Lamu West", "cumm_enrol": 46, "active_cli": 26 }, "geometry": { "type": "Point", "coordinates": [ 38.5077443, -3.4388081 ] } },
{ "type": "Feature", "properties": { "partner": "Palladium", "county": "Kilifi", "facility_l": "Other", "facility_n": "MLALEO CLINIC", "mfl_code": 11634, "status": "Partially active", "USG_Agency": "CDC", "mode_of_us": "RDE", "emr_in_use": "IQ-CARE", "poc": null, "lats_y": -3.8252335, "long_x": 39.6106755, "subcounty": "Kisauni", "cumm_enrol": 14, "active_cli": 9 }, "geometry": { "type": "Point", "coordinates": [ 39.6106755, -3.8252335 ] } },
{ "type": "Feature", "properties": { "partner": "Palladium", "county": "Kilifi", "facility_l": "Level 3-Health centre", "facility_n": "MLALEO CDF HEALTH CENTRE", "mfl_code": 11634, "status": "Partially active", "USG_Agency": "CDC", "mode_of_us": "RDE", "emr_in_use": "IQ-CARE", "poc": null, "lats_y": -4.027535, "long_x": 39.6817696, "subcounty": "Kisauni", "cumm_enrol": 713, "active_cli": 652 }, "geometry": { "type": "Point", "coordinates": [ 39.6817696, -4.027535 ] } },
{ "type": "Feature", "properties": { "partner": "Palladium", "county": "Taita-Taveta", "facility_l": "Level 5-County\/Refferal hospital", "facility_n": "MOI VOI COUNTY REFFERAL", "mfl_code": 11641, "status": "Active", "USG_Agency": "USAID", "mode_of_us": "Hybrid", "emr_in_use": "IQ-CARE", "poc": "POC with paper", "lats_y": -3.38928, "long_x": 38.56007, "subcounty": "Voi", "cumm_enrol": 3264, "active_cli": 724 }, "geometry": { "type": "Point", "coordinates": [ 38.56007, -3.38928 ] } },
{ "type": "Feature", "properties": { "partner": "Palladium", "county": "Lamu", "facility_l": "Level 3-Health centre", "facility_n": "MOKOWE HEALTH CENTRE", "mfl_code": 11642, "status": "Active", "USG_Agency": "USAID", "mode_of_us": "Hybrid", "emr_in_use": "IQ-CARE", "poc": "POC with paper", "lats_y": -2.3882, "long_x": 40.44062, "subcounty": "Lamu West", "cumm_enrol": 62, "active_cli": 60 }, "geometry": { "type": "Point", "coordinates": [ 40.44062, -2.3882 ] } },
{ "type": "Feature", "properties": { "partner": "Palladium", "county": "Lamu", "facility_l": "Level 4-Sub-county hospital", "facility_n": "MPEKETONI SUB COUNTY HOSPITAL", "mfl_code": 11649, "status": "Active", "USG_Agency": "USAID", "mode_of_us": "Hybrid", "emr_in_use": "IQ-CARE", "poc": "POC with paper", "lats_y": -2.39143, "long_x": 40.69758, "subcounty": "Lamu West", "cumm_enrol": 995, "active_cli": 537 }, "geometry": { "type": "Point", "coordinates": [ 40.69758, -2.39143 ] } },
{ "type": "Feature", "properties": { "partner": "Palladium", "county": "Kwale", "facility_l": "Level 5-County\/Refferal hospital", "facility_n": "Msambweni County Hospital", "mfl_code": 11655, "status": "Active", "USG_Agency": "USAID", "mode_of_us": "POC", "emr_in_use": "IQ-CARE", "poc": "POC without paper (paperless)", "lats_y": -4.0215774, "long_x": 39.7187183, "subcounty": "Msambweni", "cumm_enrol": 3544, "active_cli": 742 }, "geometry": { "type": "Point", "coordinates": [ 39.7187183, -4.0215774 ] } },
{ "type": "Feature", "properties": { "partner": "Palladium", "county": "Mombasa", "facility_l": "Level 3-Health centre", "facility_n": "Mtongwe (MCM) Dispensary", "mfl_code": 11669, "status": "Active", "USG_Agency": "DOD", "mode_of_us": "RDE", "emr_in_use": "IQ-CARE", "poc": null, "lats_y": -4.0591237, "long_x": 39.6576924, "subcounty": "Likoni", "cumm_enrol": 2241, "active_cli": 1180 }, "geometry": { "type": "Point", "coordinates": [ 39.6576924, -4.0591237 ] } },
{ "type": "Feature", "properties": { "partner": "Palladium", "county": "Kilifi", "facility_l": "Other", "facility_n": "TAWFIQ HOSPITAL", "mfl_code": 11672, "status": "Active", "USG_Agency": "USAID", "mode_of_us": "POC", "emr_in_use": "IQ-CARE", "poc": "POC without paper (paperless)", "lats_y": -3.2206862, "long_x": 40.1140168, "subcounty": "Bahari", "cumm_enrol": 364, "active_cli": 355 }, "geometry": { "type": "Point", "coordinates": [ 40.1140168, -3.2206862 ] } },
{ "type": "Feature", "properties": { "partner": "Palladium", "county": "Kilifi", "facility_l": "Level 3-Health centre", "facility_n": "MTWAPA HEALTH CENTRE", "mfl_code": 11672, "status": "Partially active", "USG_Agency": "USAID", "mode_of_us": "RDE", "emr_in_use": "IQ-CARE", "poc": null, "lats_y": -3.7425838, "long_x": 39.8265593, "subcounty": "Bahari", "cumm_enrol": 3138, "active_cli": 1069 }, "geometry": { "type": "Point", "coordinates": [ 39.8265593, -3.7425838 ] } },
{ "type": "Feature", "properties": { "partner": "Palladium", "county": "Kwale", "facility_l": "Level 2-Dispensary", "facility_n": "Mwaluphamba Dispensary", "mfl_code": 11684, "status": "Active", "USG_Agency": "USAID", "mode_of_us": "Hybrid", "emr_in_use": "IQ-CARE", "poc": "POC with paper", "lats_y": -4.0216529, "long_x": 39.7187536, "subcounty": "Matuga", "cumm_enrol": 384, "active_cli": 223 }, "geometry": { "type": "Point", "coordinates": [ 39.7187536, -4.0216529 ] } },
{ "type": "Feature", "properties": { "partner": "Palladium", "county": "Taita-Taveta", "facility_l": "Level 4-Sub-county hospital", "facility_n": "MWATATE SUB COUNTY HOSPITAL", "mfl_code": 11695, "status": "Active", "USG_Agency": "USAID", "mode_of_us": "Hybrid", "emr_in_use": "IQ-CARE", "poc": "POC with paper", "lats_y": -3.50732, "long_x": 38.36864, "subcounty": "Mwatate", "cumm_enrol": 1100, "active_cli": 875 }, "geometry": { "type": "Point", "coordinates": [ 38.36864, -3.50732 ] } },
{ "type": "Feature", "properties": { "partner": "Palladium", "county": "Taita-Taveta", "facility_l": "Level 3-Health centre", "facility_n": "Ndovu Health Centre", "mfl_code": 11705, "status": "Active", "USG_Agency": "USAID", "mode_of_us": "Hybrid", "emr_in_use": "IQ-CARE", "poc": "POC with paper", "lats_y": -3.4182032, "long_x": 38.1520413, "subcounty": "Voi", "cumm_enrol": 734, "active_cli": 222 }, "geometry": { "type": "Point", "coordinates": [ 38.1520413, -3.4182032 ] } },
{ "type": "Feature", "properties": { "partner": "Palladium", "county": "Tana River", "facility_l": "Level 4-Sub-county hospital", "facility_n": "NGAO SUB COUNTY HOSPITAL", "mfl_code": 11711, "status": "Active", "USG_Agency": "USAID", "mode_of_us": "POC", "emr_in_use": "IQ-CARE", "poc": "POC without paper (paperless)", "lats_y": -2.41196, "long_x": 40.20185, "subcounty": "Tana Delta", "cumm_enrol": 294, "active_cli": 115 }, "geometry": { "type": "Point", "coordinates": [ 40.20185, -2.41196 ] } },
{ "type": "Feature", "properties": { "partner": "Palladium", "county": "Taita-Taveta", "facility_l": "Level 3-Health centre", "facility_n": "NJUKINI HEALTH CENTRE", "mfl_code": 11718, "status": "Active", "USG_Agency": "USAID", "mode_of_us": "Hybrid", "emr_in_use": "IQ-CARE", "poc": "POC with paper", "lats_y": -3.18941, "long_x": 37.725, "subcounty": "Taveta", "cumm_enrol": 216, "active_cli": 146 }, "geometry": { "type": "Point", "coordinates": [ 37.725, -3.18941 ] } },
{ "type": "Feature", "properties": { "partner": "Palladium", "county": "Tana River", "facility_l": "Level 2-Dispensary", "facility_n": "ODA DISPENSARY", "mfl_code": 11725, "status": "Active", "USG_Agency": "USAID", "mode_of_us": "POC", "emr_in_use": "IQ-CARE", "poc": "POC without paper (paperless)", "lats_y": -2.4086, "long_x": 40.1937, "subcounty": "Tana Delta", "cumm_enrol": 34, "active_cli": 32 }, "geometry": { "type": "Point", "coordinates": [ 40.1937, -2.4086 ] } },
{ "type": "Feature", "properties": { "partner": "Palladium", "county": "Lamu", "facility_l": "Level 3-Health centre", "facility_n": "Pablo Hortsman Health Centre", "mfl_code": 11729, "status": "Active", "USG_Agency": null, "mode_of_us": "RDE", "emr_in_use": "IQ-CARE", "poc": "POC with paper", "lats_y": -2.235049, "long_x": 40.7608311, "subcounty": "Lamu West", "cumm_enrol": 61, "active_cli": 40 }, "geometry": { "type": "Point", "coordinates": [ 40.7608311, -2.235049 ] } },
{ "type": "Feature", "properties": { "partner": "Palladium", "county": "Kilifi", "facility_l": "Level 2-Dispensary", "facility_n": "RABAI HEALTH DEMONSTRATIVE CENTRE", "mfl_code": 11748, "status": "Partially active", "USG_Agency": "USAID", "mode_of_us": "RDE", "emr_in_use": "IQ-CARE", "poc": null, "lats_y": -3.5534323, "long_x": 39.8760727, "subcounty": "Rabai", "cumm_enrol": 1054, "active_cli": 415 }, "geometry": { "type": "Point", "coordinates": [ 39.8760727, -3.5534323 ] } },
{ "type": "Feature", "properties": { "partner": "Palladium", "county": "Lamu", "facility_l": "Level 2-Dispensary", "facility_n": "Shella Dispensary", "mfl_code": 11784, "status": "Partially active", "USG_Agency": "USAID", "mode_of_us": "Hybrid", "emr_in_use": "IQ-CARE", "poc": "POC with paper", "lats_y": -2.2709767, "long_x": 40.9031148, "subcounty": "Lamu West", "cumm_enrol": 52, "active_cli": 14 }, "geometry": { "type": "Point", "coordinates": [ 40.9031148, -2.2709767 ] } },
{ "type": "Feature", "properties": { "partner": "Palladium", "county": "Mombasa", "facility_l": "Level 2-Dispensary", "facility_n": "SHIKA ADABU MCM DISPENSARY", "mfl_code": 11785, "status": "Partially active", "USG_Agency": "USAID", "mode_of_us": "RDE", "emr_in_use": "IQ-CARE", "poc": null, "lats_y": -4.1127812, "long_x": 39.6353549, "subcounty": "Likoni", "cumm_enrol": 506, "active_cli": 131 }, "geometry": { "type": "Point", "coordinates": [ 39.6353549, -4.1127812 ] } },
{ "type": "Feature", "properties": { "partner": "Palladium", "county": "Taita-Taveta", "facility_l": "Level 4-Sub-county hospital", "facility_n": "Taveta Sub County Hospital", "mfl_code": 11840, "status": "Active", "USG_Agency": "USAID", "mode_of_us": "Hybrid", "emr_in_use": "IQ-CARE", "poc": "POC with paper", "lats_y": -3.5100439, "long_x": 38.3575842, "subcounty": "Taveta", "cumm_enrol": 2066, "active_cli": 798 }, "geometry": { "type": "Point", "coordinates": [ 38.3575842, -3.5100439 ] } },
{ "type": "Feature", "properties": { "partner": "Palladium", "county": "Kwale", "facility_l": "Level 3-Health centre", "facility_n": "Tiwi Rural Health Centre", "mfl_code": 11853, "status": "Active", "USG_Agency": "USAID", "mode_of_us": "Hybrid", "emr_in_use": "IQ-CARE", "poc": "POC with paper", "lats_y": -4.0215988, "long_x": 39.7187283, "subcounty": "Matuga", "cumm_enrol": 1265, "active_cli": 406 }, "geometry": { "type": "Point", "coordinates": [ 39.7187283, -4.0215988 ] } },
{ "type": "Feature", "properties": { "partner": "Palladium", "county": "Mombasa", "facility_l": "Level 4-Sub-county hospital", "facility_n": "TUDOR SUB COUNTY HOSPITAL", "mfl_code": 11861, "status": "Active", "USG_Agency": "USAID", "mode_of_us": "POC", "emr_in_use": "IQ-CARE", "poc": "POC with paper", "lats_y": -4.0406683, "long_x": 39.6620928, "subcounty": "Mvita", "cumm_enrol": 5600, "active_cli": 3867 }, "geometry": { "type": "Point", "coordinates": [ 39.6620928, -4.0406683 ] } },
{ "type": "Feature", "properties": { "partner": "Palladium", "county": "Kwale", "facility_l": "Level 3-Health centre", "facility_n": "Vanga HC", "mfl_code": 11879, "status": "Active", "USG_Agency": "USAID", "mode_of_us": "Hybrid", "emr_in_use": "IQ-CARE", "poc": "POC with paper", "lats_y": -4.66212, "long_x": 39.21796, "subcounty": "Msambweni", "cumm_enrol": 681, "active_cli": 137 }, "geometry": { "type": "Point", "coordinates": [ 39.21796, -4.66212 ] } },
{ "type": "Feature", "properties": { "partner": "Palladium", "county": "Kilifi", "facility_l": "Level 3-Health centre", "facility_n": "VIPINGO HEALTH CENTRE", "mfl_code": 11881, "status": "Active", "USG_Agency": "USAID", "mode_of_us": "RDE", "emr_in_use": "IQ-CARE", "poc": null, "lats_y": -3.81928, "long_x": 39.80962, "subcounty": "Bahari", "cumm_enrol": 1611, "active_cli": 731 }, "geometry": { "type": "Point", "coordinates": [ 39.80962, -3.81928 ] } },
{ "type": "Feature", "properties": { "partner": "Palladium", "county": "Kwale", "facility_l": "Level 2-Dispensary", "facility_n": "Was Dispensary", "mfl_code": 11888, "status": "Active", "USG_Agency": "USAID", "mode_of_us": "POC", "emr_in_use": "IQ-CARE", "poc": "POC without paper (paperless)", "lats_y": -4.0196426, "long_x": 39.7046189, "subcounty": "Matuga", "cumm_enrol": 201, "active_cli": 97 }, "geometry": { "type": "Point", "coordinates": [ 39.7046189, -4.0196426 ] } },
{ "type": "Feature", "properties": { "partner": "Palladium", "county": "Taita-Taveta", "facility_l": "Level 4-Sub-county hospital", "facility_n": "WESU SUB COUNTY HOSPITAL", "mfl_code": 11906, "status": "Active", "USG_Agency": "USAID", "mode_of_us": "Hybrid", "emr_in_use": "IQ-CARE", "poc": "POC with paper", "lats_y": -3.40882, "long_x": 38.34159, "subcounty": "Wundanyi", "cumm_enrol": 773, "active_cli": 261 }, "geometry": { "type": "Point", "coordinates": [ 38.34159, -3.40882 ] } },
{ "type": "Feature", "properties": { "partner": "Palladium", "county": "Lamu", "facility_l": "Level 3-Health centre", "facility_n": "Witu Health Centre", "mfl_code": 11907, "status": "Active", "USG_Agency": "USAID", "mode_of_us": "Hybrid", "emr_in_use": "IQ-CARE", "poc": "POC with paper", "lats_y": -3.4940036, "long_x": 38.4236093, "subcounty": "Lamu West", "cumm_enrol": 604, "active_cli": 274 }, "geometry": { "type": "Point", "coordinates": [ 38.4236093, -3.4940036 ] } },
{ "type": "Feature", "properties": { "partner": "Palladium", "county": "Taita-Taveta", "facility_l": "Level 4-Sub-county hospital", "facility_n": "WUNDANYI SUB COUNTY HOSPITAL", "mfl_code": 11908, "status": "Active", "USG_Agency": "USAID", "mode_of_us": "Hybrid", "emr_in_use": "IQ-CARE", "poc": "POC with paper", "lats_y": -3.4028, "long_x": 38.36303, "subcounty": "Wundanyi", "cumm_enrol": 596, "active_cli": 201 }, "geometry": { "type": "Point", "coordinates": [ 38.36303, -3.4028 ] } },
{ "type": "Feature", "properties": { "partner": "Palladium", "county": "Kilifi", "facility_l": "Level 3-Health centre", "facility_n": "Oasis Medical Centre", "mfl_code": 11912, "status": "Active", "USG_Agency": "USAID", "mode_of_us": "POC", "emr_in_use": "IQ-CARE", "poc": "POC with paper", "lats_y": -3.93024, "long_x": 39.74955, "subcounty": "Bahari", "cumm_enrol": 1843, "active_cli": 844 }, "geometry": { "type": "Point", "coordinates": [ 39.74955, -3.93024 ] } },
{ "type": "Feature", "properties": { "partner": "Palladium", "county": "Tharaka-Nithi", "facility_l": "Level 3-Health centre", "facility_n": "Baragu Health Centre", "mfl_code": 11942, "status": "Partially active", "USG_Agency": "USAID", "mode_of_us": "RDE", "emr_in_use": "IQ-CARE", "poc": null, "lats_y": -1.4029527, "long_x": 36.7871681, "subcounty": "Maara", "cumm_enrol": 91, "active_cli": 65 }, "geometry": { "type": "Point", "coordinates": [ 36.7871681, -1.4029527 ] } },
{ "type": "Feature", "properties": { "partner": "Palladium", "county": "Makueni", "facility_l": "Level 2-Dispensary", "facility_n": "Kambuu Catholic Dispensary", "mfl_code": 11962, "status": "Active", "USG_Agency": "CDC", "mode_of_us": "Hybrid", "emr_in_use": "IQ-CARE", "poc": "POC with paper", "lats_y": -2.59657, "long_x": 38.07598, "subcounty": "Kibwezi", "cumm_enrol": 200, "active_cli": 172 }, "geometry": { "type": "Point", "coordinates": [ 38.07598, -2.59657 ] } },
{ "type": "Feature", "properties": { "partner": "Palladium", "county": "Tharaka-Nithi", "facility_l": "Level 4-Sub-county hospital", "facility_n": "Chuka District Hospital", "mfl_code": 11973, "status": "Active", "USG_Agency": "USAID", "mode_of_us": "POC", "emr_in_use": "IQ-CARE", "poc": "POC with paper", "lats_y": -1.2988505, "long_x": 36.7834415, "subcounty": "Meru South", "cumm_enrol": 2327, "active_cli": 1594 }, "geometry": { "type": "Point", "coordinates": [ 36.7834415, -1.2988505 ] } },
{ "type": "Feature", "properties": { "partner": "Palladium", "county": "Embu", "facility_l": "Level 2-Dispensary", "facility_n": "Dallas Dispensary", "mfl_code": 11984, "status": "Partially active", "USG_Agency": "USAID", "mode_of_us": "POC", "emr_in_use": "IQ-CARE", "poc": "POC with paper", "lats_y": -0.5523317, "long_x": 37.4026783, "subcounty": "Embu West", "cumm_enrol": 109, "active_cli": 86 }, "geometry": { "type": "Point", "coordinates": [ 37.4026783, -0.5523317 ] } },
{ "type": "Feature", "properties": { "partner": "Palladium", "county": "Machakos", "facility_l": "Level 3-Health centre", "facility_n": "Ekakakala Hc", "mfl_code": 11995, "status": "Active", "USG_Agency": "CDC", "mode_of_us": "RDE", "emr_in_use": "IQ-CARE", "poc": null, "lats_y": -0.58176, "long_x": 37.2823, "subcounty": "Masinga", "cumm_enrol": 650, "active_cli": 450 }, "geometry": { "type": "Point", "coordinates": [ 37.2823, -0.58176 ] } },
{ "type": "Feature", "properties": { "partner": "Palladium", "county": "Embu", "facility_l": "Level 5-County\/Refferal hospital", "facility_n": "Embu Provincial General Hospital", "mfl_code": 12004, "status": "Partially active", "USG_Agency": "USAID", "mode_of_us": "RDE", "emr_in_use": "IQ-CARE", "poc": null, "lats_y": -0.8789217, "long_x": 37.2325533, "subcounty": "Embu West", "cumm_enrol": 5254, "active_cli": 2450 }, "geometry": { "type": "Point", "coordinates": [ 37.2325533, -0.8789217 ] } },
{ "type": "Feature", "properties": { "partner": "Palladium", "county": "Tharaka-Nithi", "facility_l": "Level 3-Health centre", "facility_n": "Gatunga Health Centre", "mfl_code": 12034, "status": "Partially active", "USG_Agency": "USAID", "mode_of_us": "RDE", "emr_in_use": "IQ-CARE", "poc": null, "lats_y": -1.4034463, "long_x": 36.7868315, "subcounty": "Tharaka South", "cumm_enrol": 38, "active_cli": 35 }, "geometry": { "type": "Point", "coordinates": [ 36.7868315, -1.4034463 ] } },
{ "type": "Feature", "properties": { "partner": "Palladium", "county": "Meru", "facility_l": "Level 4-Sub-county hospital", "facility_n": "Githongo District Hospital", "mfl_code": 12041, "status": "Partially active", "USG_Agency": "USAID", "mode_of_us": "RDE", "emr_in_use": "IQ-CARE", "poc": null, "lats_y": -1.4029527, "long_x": 36.7871681, "subcounty": "Meru Central", "cumm_enrol": 448, "active_cli": 242 }, "geometry": { "type": "Point", "coordinates": [ 36.7871681, -1.4029527 ] } },
{ "type": "Feature", "properties": { "partner": "Palladium", "county": "Machakos", "facility_l": "Level 3-Health centre", "facility_n": "Machakos Gk Prison", "mfl_code": 12048, "status": "Active", "USG_Agency": "CDC", "mode_of_us": "Hybrid", "emr_in_use": "IQ-CARE", "poc": "POC with paper", "lats_y": -1.5204, "long_x": 37.26116, "subcounty": "Machakos", "cumm_enrol": 200, "active_cli": 140 }, "geometry": { "type": "Point", "coordinates": [ 37.26116, -1.5204 ] } },
{ "type": "Feature", "properties": { "partner": "Palladium", "county": "Kitui", "facility_l": "Level 3-Health centre", "facility_n": "Ikutha Health Centre", "mfl_code": 12080, "status": "Partially active", "USG_Agency": "CDC", "mode_of_us": "RDE", "emr_in_use": "IQ-CARE", "poc": null, "lats_y": -2.06637, "long_x": 38.17736, "subcounty": "Ikutha", "cumm_enrol": 650, "active_cli": 400 }, "geometry": { "type": "Point", "coordinates": [ 38.17736, -2.06637 ] } },
{ "type": "Feature", "properties": { "partner": "Palladium", "county": "Tharaka-Nithi", "facility_l": "Level 3-Health centre", "facility_n": "Kajuki Health Centre", "mfl_code": 12132, "status": "Partially active", "USG_Agency": "USAID", "mode_of_us": "RDE", "emr_in_use": "IQ-CARE", "poc": null, "lats_y": -0.9398767, "long_x": 37.1245783, "subcounty": "Meru South", "cumm_enrol": 266, "active_cli": 166 }, "geometry": { "type": "Point", "coordinates": [ 37.1245783, -0.9398767 ] } },
{ "type": "Feature", "properties": { "partner": "Palladium", "county": "Makueni", "facility_l": "Level 3-Health centre", "facility_n": "Kalawa HC", "mfl_code": 12147, "status": "Active", "USG_Agency": "CDC", "mode_of_us": "RDE", "emr_in_use": "IQ-CARE", "poc": null, "lats_y": -1.64709, "long_x": 37.71241, "subcounty": "Mbooni East", "cumm_enrol": 700, "active_cli": 480 }, "geometry": { "type": "Point", "coordinates": [ 37.71241, -1.64709 ] } },
{ "type": "Feature", "properties": { "partner": "Palladium", "county": "Embu", "facility_l": "Level 3-Health centre", "facility_n": "Kanja Health Centre", "mfl_code": 12179, "status": "Inactive", "USG_Agency": "USAID", "mode_of_us": "Hybrid", "emr_in_use": "IQ-CARE", "poc": "POC with paper", "lats_y": -1.4034463, "long_x": 36.7868315, "subcounty": "Embu East", "cumm_enrol": 117, "active_cli": 105 }, "geometry": { "type": "Point", "coordinates": [ 36.7868315, -1.4034463 ] } },
{ "type": "Feature", "properties": { "partner": "Palladium", "county": "Meru", "facility_l": "Level 4-Sub-county hospital", "facility_n": "Kanyakine Sub District Hospital", "mfl_code": 12181, "status": "Partially active", "USG_Agency": "USAID", "mode_of_us": "RDE", "emr_in_use": "IQ-CARE", "poc": null, "lats_y": -1.2988482, "long_x": 36.7834014, "subcounty": "Imenti South", "cumm_enrol": 1465, "active_cli": 1200 }, "geometry": { "type": "Point", "coordinates": [ 36.7834014, -1.2988482 ] } },
{ "type": "Feature", "properties": { "partner": "Palladium", "county": "Embu", "facility_l": "Level 3-Health centre", "facility_n": "Karau Health Centre", "mfl_code": 12198, "status": "Partially active", "USG_Agency": "USAID", "mode_of_us": "POC", "emr_in_use": "IQ-CARE", "poc": "POC with paper", "lats_y": -0.38348, "long_x": 37.4662, "subcounty": "Embu North", "cumm_enrol": 231, "active_cli": 147 }, "geometry": { "type": "Point", "coordinates": [ 37.4662, -0.38348 ] } },
{ "type": "Feature", "properties": { "partner": "Palladium", "county": "Makueni", "facility_l": "Level 3-Health centre", "facility_n": "Kathonzweni HC", "mfl_code": 12236, "status": "Active", "USG_Agency": "CDC", "mode_of_us": "RDE", "emr_in_use": "IQ-CARE", "poc": null, "lats_y": -1.91523, "long_x": 37.72985, "subcounty": "Kathonzweni", "cumm_enrol": 800, "active_cli": 450 }, "geometry": { "type": "Point", "coordinates": [ 37.72985, -1.91523 ] } },
{ "type": "Feature", "properties": { "partner": "Palladium", "county": "Machakos", "facility_l": "Level 3-Health centre", "facility_n": "Kaviani Hc", "mfl_code": 12257, "status": "Active", "USG_Agency": "CDC", "mode_of_us": "RDE", "emr_in_use": "IQ-CARE", "poc": null, "lats_y": -1.47227, "long_x": 37.30887, "subcounty": "Kathiani", "cumm_enrol": 150, "active_cli": 100 }, "geometry": { "type": "Point", "coordinates": [ 37.30887, -1.47227 ] } },
{ "type": "Feature", "properties": { "partner": "Palladium", "county": "Tharaka-Nithi", "facility_l": "Level 3-Health centre", "facility_n": "Kiamuchairu Health Centre", "mfl_code": 12272, "status": "Partially active", "USG_Agency": "USAID", "mode_of_us": "Hybrid", "emr_in_use": "IQ-CARE", "poc": "POC with paper", "lats_y": -1.4029527, "long_x": 36.7871681, "subcounty": "Maara", "cumm_enrol": 18, "active_cli": 9 }, "geometry": { "type": "Point", "coordinates": [ 36.7871681, -1.4029527 ] } },
{ "type": "Feature", "properties": { "partner": "Palladium", "county": "Embu", "facility_l": "Level 4-Sub-county hospital", "facility_n": "Kianjokoma Sub District Hospital", "mfl_code": 12279, "status": "Partially active", "USG_Agency": "USAID", "mode_of_us": "RDE", "emr_in_use": "IQ-CARE", "poc": null, "lats_y": -0.84361, "long_x": 37.23235, "subcounty": "Embu East", "cumm_enrol": 503, "active_cli": 357 }, "geometry": { "type": "Point", "coordinates": [ 37.23235, -0.84361 ] } },
{ "type": "Feature", "properties": { "partner": "Palladium", "county": "Embu", "facility_l": "Level 3-Health centre", "facility_n": "Kibugu Health Centre", "mfl_code": 12287, "status": "Partially active", "USG_Agency": "USAID", "mode_of_us": "RDE", "emr_in_use": "IQ-CARE", "poc": null, "lats_y": -0.90579, "long_x": 37.2090267, "subcounty": "Embu North", "cumm_enrol": 403, "active_cli": 247 }, "geometry": { "type": "Point", "coordinates": [ 37.2090267, -0.90579 ] } },
{ "type": "Feature", "properties": { "partner": "Palladium", "county": "Meru", "facility_l": "Level 3-Health centre", "facility_n": "Kibugua Health Centre", "mfl_code": 12288, "status": "Partially active", "USG_Agency": "USAID", "mode_of_us": "RDE", "emr_in_use": "IQ-CARE", "poc": null, "lats_y": -0.36704, "long_x": 37.61487, "subcounty": "Meru South", "cumm_enrol": 400, "active_cli": 305 }, "geometry": { "type": "Point", "coordinates": [ 37.61487, -0.36704 ] } },
{ "type": "Feature", "properties": { "partner": "Palladium", "county": "Embu", "facility_l": "Level 2-Dispensary", "facility_n": "Kigumo Dispensary", "mfl_code": 12300, "status": "Partially active", "USG_Agency": "USAID", "mode_of_us": "POC", "emr_in_use": "IQ-CARE", "poc": "POC without paper (paperless)", "lats_y": -0.6677325, "long_x": 37.3631335, "subcounty": "Embu East", "cumm_enrol": 35, "active_cli": 30 }, "geometry": { "type": "Point", "coordinates": [ 37.3631335, -0.6677325 ] } },
{ "type": "Feature", "properties": { "partner": "Palladium", "county": "Makueni", "facility_l": "Level 3-Health centre", "facility_n": "Kilala", "mfl_code": 12309, "status": "Partially active", "USG_Agency": "CDC", "mode_of_us": "RDE", "emr_in_use": "IQ-CARE", "poc": null, "lats_y": -1.6718781, "long_x": 37.1941327, "subcounty": "Makueni", "cumm_enrol": 248, "active_cli": 207 }, "geometry": { "type": "Point", "coordinates": [ 37.1941327, -1.6718781 ] } },
{ "type": "Feature", "properties": { "partner": "Palladium", "county": "Makueni", "facility_l": "Level 4-Sub-county hospital", "facility_n": "Kilungu Sub County Hospital", "mfl_code": 12314, "status": "Inactive", "USG_Agency": "CDC", "mode_of_us": "RDE", "emr_in_use": "IQ-CARE", "poc": null, "lats_y": -1.78699, "long_x": 37.36019, "subcounty": "Kilungu", "cumm_enrol": 1900, "active_cli": 1200 }, "geometry": { "type": "Point", "coordinates": [ 37.36019, -1.78699 ] } },
{ "type": "Feature", "properties": { "partner": "Palladium", "county": "Meru", "facility_l": "Level 4-Sub-county hospital", "facility_n": "Kinoro Sub District Hospital", "mfl_code": 12325, "status": "Partially active", "USG_Agency": "USAID", "mode_of_us": "RDE", "emr_in_use": "IQ-CARE", "poc": null, "lats_y": -0.17948, "long_x": 37.62503, "subcounty": "Imenti South", "cumm_enrol": 165, "active_cli": 112 }, "geometry": { "type": "Point", "coordinates": [ 37.62503, -0.17948 ] } },
{ "type": "Feature", "properties": { "partner": "Palladium", "county": "Makueni", "facility_l": "Level 4-Sub-county hospital", "facility_n": "Kisau Sub County Hospital", "mfl_code": 12341, "status": "Active", "USG_Agency": "CDC", "mode_of_us": "RDE", "emr_in_use": "IQ-CARE", "poc": null, "lats_y": -1.62784, "long_x": 37.55771, "subcounty": "Mbooni East", "cumm_enrol": 300, "active_cli": 190 }, "geometry": { "type": "Point", "coordinates": [ 37.55771, -1.62784 ] } },
{ "type": "Feature", "properties": { "partner": "Palladium", "county": "Machakos", "facility_l": "Level 3-Health centre", "facility_n": "Kithyoko HC", "mfl_code": 12362, "status": "Active", "USG_Agency": "CDC", "mode_of_us": "RDE", "emr_in_use": "IQ-CARE", "poc": null, "lats_y": -1.02575, "long_x": 37.5025, "subcounty": "Masinga", "cumm_enrol": 800, "active_cli": 500 }, "geometry": { "type": "Point", "coordinates": [ 37.5025, -1.02575 ] } },
{ "type": "Feature", "properties": { "partner": "Palladium", "county": "Makueni", "facility_l": "Level 2-Dispensary", "facility_n": "AIC KIU DISPENSARY.", "mfl_code": 12374, "status": "Partially active", "USG_Agency": "USAID", "mode_of_us": "RDE", "emr_in_use": "IQ-CARE", "poc": null, "lats_y": -1.89925, "long_x": 37.16306, "subcounty": "Mukaa", "cumm_enrol": 124, "active_cli": 97 }, "geometry": { "type": "Point", "coordinates": [ 37.16306, -1.89925 ] } },
{ "type": "Feature", "properties": { "partner": "Palladium", "county": "Machakos", "facility_l": "Level 3-Health centre", "facility_n": "Kivaa HC", "mfl_code": 12375, "status": "Active", "USG_Agency": "CDC", "mode_of_us": "Hybrid", "emr_in_use": "IQ-CARE", "poc": "POC with paper", "lats_y": -0.50996, "long_x": 37.41655, "subcounty": "Masinga", "cumm_enrol": 800, "active_cli": 650 }, "geometry": { "type": "Point", "coordinates": [ 37.41655, -0.50996 ] } },
{ "type": "Feature", "properties": { "partner": "Palladium", "county": "Machakos", "facility_l": "Level 3-Health centre", "facility_n": "Kola Health Centre", "mfl_code": 12381, "status": "Partially active", "USG_Agency": "CDC", "mode_of_us": "RDE", "emr_in_use": "IQ-CARE", "poc": null, "lats_y": -1.6718781, "long_x": 37.1941327, "subcounty": "Machakos", "cumm_enrol": 246, "active_cli": 231 }, "geometry": { "type": "Point", "coordinates": [ 37.1941327, -1.6718781 ] } },
{ "type": "Feature", "properties": { "partner": "Palladium", "county": "Machakos", "facility_l": "Level 5-County\/Refferal hospital", "facility_n": "Machakos County Hospital", "mfl_code": 12438, "status": "Active", "USG_Agency": "CDC", "mode_of_us": "RDE", "emr_in_use": "C-PAD", "poc": null, "lats_y": -1.52291, "long_x": 37.26754, "subcounty": "Machakos", "cumm_enrol": 10000, "active_cli": 8000 }, "geometry": { "type": "Point", "coordinates": [ 37.26754, -1.52291 ] } },
{ "type": "Feature", "properties": { "partner": "Palladium", "county": "Tharaka-Nithi", "facility_l": "Level 4-Sub-county hospital", "facility_n": "Magutuni District Hospital", "mfl_code": 12445, "status": "Partially active", "USG_Agency": "USAID", "mode_of_us": "Hybrid", "emr_in_use": "IQ-CARE", "poc": "POC with paper", "lats_y": -1.4029527, "long_x": 36.7871681, "subcounty": "Maara", "cumm_enrol": 508, "active_cli": 209 }, "geometry": { "type": "Point", "coordinates": [ 36.7871681, -1.4029527 ] } },
{ "type": "Feature", "properties": { "partner": "Palladium", "county": "Machakos", "facility_l": "Level 3-Health centre", "facility_n": "Masinga Hc", "mfl_code": 12476, "status": "Partially active", "USG_Agency": "CDC", "mode_of_us": "RDE", "emr_in_use": "IQ-CARE", "poc": null, "lats_y": -0.5844, "long_x": 37.3623, "subcounty": "Masinga", "cumm_enrol": 900, "active_cli": 400 }, "geometry": { "type": "Point", "coordinates": [ 37.3623, -0.5844 ] } },
{ "type": "Feature", "properties": { "partner": "Palladium", "county": "Makueni", "facility_l": "Level 3-Health centre", "facility_n": "Masongaleni Hc", "mfl_code": 12477, "status": "Active", "USG_Agency": "CDC", "mode_of_us": "RDE", "emr_in_use": "IQ-CARE", "poc": null, "lats_y": -2.36966, "long_x": 38.12883, "subcounty": "Kibwezi", "cumm_enrol": 350, "active_cli": 180 }, "geometry": { "type": "Point", "coordinates": [ 38.12883, -2.36966 ] } },
{ "type": "Feature", "properties": { "partner": "Palladium", "county": "Machakos", "facility_l": "Level 4-Sub-county hospital", "facility_n": "Matiliku District Hospital", "mfl_code": 12485, "status": "Partially active", "USG_Agency": "CDC", "mode_of_us": "RDE", "emr_in_use": "IQ-CARE", "poc": null, "lats_y": -1.6718781, "long_x": 37.1941327, "subcounty": "Nzaui", "cumm_enrol": 806, "active_cli": 396 }, "geometry": { "type": "Point", "coordinates": [ 37.1941327, -1.6718781 ] } },
{ "type": "Feature", "properties": { "partner": "Palladium", "county": "Machakos", "facility_l": "Level 3-Health centre", "facility_n": "Mbiuni Health Centre", "mfl_code": 12503, "status": "Partially active", "USG_Agency": "CDC", "mode_of_us": "RDE", "emr_in_use": "IQ-CARE", "poc": null, "lats_y": -1.6718781, "long_x": 37.1941327, "subcounty": "Mwala", "cumm_enrol": 425, "active_cli": 326 }, "geometry": { "type": "Point", "coordinates": [ 37.1941327, -1.6718781 ] } },
{ "type": "Feature", "properties": { "partner": "Palladium", "county": "Makueni", "facility_l": "Level 4-Sub-county hospital", "facility_n": "Mbooni District Hospital", "mfl_code": 12508, "status": "Partially active", "USG_Agency": "CDC", "mode_of_us": "RDE", "emr_in_use": "IQ-CARE", "poc": null, "lats_y": -1.6718781, "long_x": 37.1941327, "subcounty": "Mbooni West", "cumm_enrol": 1318, "active_cli": 644 }, "geometry": { "type": "Point", "coordinates": [ 37.1941327, -1.6718781 ] } },
{ "type": "Feature", "properties": { "partner": "Palladium", "county": "Meru", "facility_l": "Level 4-Sub-county hospital", "facility_n": "Mikumbune Sub District Hospital", "mfl_code": 12526, "status": "Partially active", "USG_Agency": "USAID", "mode_of_us": "RDE", "emr_in_use": "IQ-CARE", "poc": null, "lats_y": -1.29887, "long_x": 36.7834506, "subcounty": "Imenti South", "cumm_enrol": 659, "active_cli": 263 }, "geometry": { "type": "Point", "coordinates": [ 36.7834506, -1.29887 ] } },
{ "type": "Feature", "properties": { "partner": "Palladium", "county": "Machakos", "facility_l": "Level 3-Health centre", "facility_n": "Mitamboni HC", "mfl_code": 12530, "status": "Partially active", "USG_Agency": "CDC", "mode_of_us": "RDE", "emr_in_use": "IQ-CARE", "poc": null, "lats_y": -1.37272, "long_x": 37.24834, "subcounty": "Kathiani", "cumm_enrol": 700, "active_cli": 400 }, "geometry": { "type": "Point", "coordinates": [ 37.24834, -1.37272 ] } },
{ "type": "Feature", "properties": { "partner": "Palladium", "county": "Tharaka-Nithi", "facility_l": "Level 3-Health centre", "facility_n": "Mpukoni Health Centre", "mfl_code": 12546, "status": "Partially active", "USG_Agency": "USAID", "mode_of_us": "Hybrid", "emr_in_use": "IQ-CARE", "poc": "POC with paper", "lats_y": -0.92933, "long_x": 37.17373, "subcounty": "Meru South", "cumm_enrol": 220, "active_cli": 111 }, "geometry": { "type": "Point", "coordinates": [ 37.17373, -0.92933 ] } },
{ "type": "Feature", "properties": { "partner": "Palladium", "county": "Machakos", "facility_l": "Level 3-Health centre", "facility_n": "Mukuyuni Health Centre", "mfl_code": 12565, "status": "Partially active", "USG_Agency": "CDC", "mode_of_us": "RDE", "emr_in_use": "IQ-CARE", "poc": null, "lats_y": -1.6718781, "long_x": 37.1941327, "subcounty": "Makueni", "cumm_enrol": 506, "active_cli": 278 }, "geometry": { "type": "Point", "coordinates": [ 37.1941327, -1.6718781 ] } },
{ "type": "Feature", "properties": { "partner": "Palladium", "county": "Makueni", "facility_l": "Level 4-Sub-county hospital", "facility_n": "Mkuyuni Sub County", "mfl_code": 12565, "status": "Active", "USG_Agency": "CDC", "mode_of_us": "RDE", "emr_in_use": "IQ-CARE", "poc": null, "lats_y": -1.74779, "long_x": 37.45951, "subcounty": "Makueni", "cumm_enrol": 250, "active_cli": 120 }, "geometry": { "type": "Point", "coordinates": [ 37.45951, -1.74779 ] } },
{ "type": "Feature", "properties": { "partner": "Palladium", "county": "Kitui", "facility_l": "Level 3-Health centre", "facility_n": "AIC Mulango", "mfl_code": 12566, "status": "Active", "USG_Agency": "CDC", "mode_of_us": "POC", "emr_in_use": "IQ-CARE", "poc": "POC with paper", "lats_y": -1.42834, "long_x": 38.01174, "subcounty": "Katulani", "cumm_enrol": 300, "active_cli": 278 }, "geometry": { "type": "Point", "coordinates": [ 38.01174, -1.42834 ] } },
{ "type": "Feature", "properties": { "partner": "Palladium", "county": "Tharaka-Nithi", "facility_l": "Level 3-Health centre", "facility_n": "Muthambi Health Centre", "mfl_code": 12589, "status": "Partially active", "USG_Agency": "USAID", "mode_of_us": "Hybrid", "emr_in_use": "IQ-CARE", "poc": "POC with paper", "lats_y": -1.4029527, "long_x": 36.7871681, "subcounty": "Maara", "cumm_enrol": 707, "active_cli": 277 }, "geometry": { "type": "Point", "coordinates": [ 36.7871681, -1.4029527 ] } },
{ "type": "Feature", "properties": { "partner": "Palladium", "county": "Machakos", "facility_l": "Level 2-Dispensary", "facility_n": "Mutituni Dispensary", "mfl_code": 12602, "status": "Partially active", "USG_Agency": "CDC", "mode_of_us": "RDE", "emr_in_use": "IQ-CARE", "poc": null, "lats_y": -1.6718781, "long_x": 37.1941327, "subcounty": "Machakos", "cumm_enrol": 612, "active_cli": 455 }, "geometry": { "type": "Point", "coordinates": [ 37.1941327, -1.6718781 ] } },
{ "type": "Feature", "properties": { "partner": "Palladium", "county": "Kitui", "facility_l": "Level 4-Sub-county hospital", "facility_n": "Mutomo Sub County Hospital", "mfl_code": 12603, "status": "Inactive", "USG_Agency": "CDC", "mode_of_us": "RDE", "emr_in_use": "IQ-CARE", "poc": null, "lats_y": -1.85412, "long_x": 38.20901, "subcounty": "Mutomo", "cumm_enrol": 430, "active_cli": 280 }, "geometry": { "type": "Point", "coordinates": [ 38.20901, -1.85412 ] } },
{ "type": "Feature", "properties": { "partner": "Palladium", "county": "Machakos", "facility_l": "Level 3-Health centre", "facility_n": "Mumandu HC", "mfl_code": 12612, "status": "Active", "USG_Agency": "CDC", "mode_of_us": "RDE", "emr_in_use": "IQ-CARE", "poc": null, "lats_y": -1.66002, "long_x": 37.28502, "subcounty": "Machakos", "cumm_enrol": 450, "active_cli": 350 }, "geometry": { "type": "Point", "coordinates": [ 37.28502, -1.66002 ] } },
{ "type": "Feature", "properties": { "partner": "Palladium", "county": "Embu", "facility_l": "Level 3-Health centre", "facility_n": "Nembure Health Centre", "mfl_code": 12642, "status": "Partially active", "USG_Agency": "USAID", "mode_of_us": "RDE", "emr_in_use": "IQ-CARE", "poc": null, "lats_y": -0.6601067, "long_x": 37.5970883, "subcounty": "Embu West", "cumm_enrol": 390, "active_cli": 253 }, "geometry": { "type": "Point", "coordinates": [ 37.5970883, -0.6601067 ] } },
{ "type": "Feature", "properties": { "partner": "Palladium", "county": "Kitui", "facility_l": "Level 3-Health centre", "facility_n": "Ngomeni HC", "mfl_code": 12654, "status": "Partially active", "USG_Agency": "CDC", "mode_of_us": "RDE", "emr_in_use": "IQ-CARE", "poc": null, "lats_y": -0.6427, "long_x": 38.40848, "subcounty": "Kyuso", "cumm_enrol": 200, "active_cli": 140 }, "geometry": { "type": "Point", "coordinates": [ 38.40848, -0.6427 ] } },
{ "type": "Feature", "properties": { "partner": "Palladium", "county": "Machakos", "facility_l": "Level 3-Health centre", "facility_n": "Nguluni Health Centre", "mfl_code": 12657, "status": "Partially active", "USG_Agency": "CDC", "mode_of_us": "RDE", "emr_in_use": "IQ-CARE", "poc": null, "lats_y": -1.6718781, "long_x": 37.1941327, "subcounty": "Matungulu", "cumm_enrol": 779, "active_cli": 560 }, "geometry": { "type": "Point", "coordinates": [ 37.1941327, -1.6718781 ] } },
{ "type": "Feature", "properties": { "partner": "Palladium", "county": "Kitui", "facility_l": "Level 3-Health centre", "facility_n": "Nguni HC", "mfl_code": 12658, "status": "Partially active", "USG_Agency": "CDC", "mode_of_us": "RDE", "emr_in_use": "IQ-CARE", "poc": null, "lats_y": -0.80311, "long_x": 38.01495, "subcounty": "Mwingi East", "cumm_enrol": 300, "active_cli": 110 }, "geometry": { "type": "Point", "coordinates": [ 38.01495, -0.80311 ] } },
{ "type": "Feature", "properties": { "partner": "Palladium", "county": "Makueni", "facility_l": "Level 3-Health centre", "facility_n": "Ngwata HC", "mfl_code": 12663, "status": "Active", "USG_Agency": "CDC", "mode_of_us": "RDE", "emr_in_use": "IQ-CARE", "poc": null, "lats_y": -2.52946, "long_x": 38.04965, "subcounty": "Kibwezi", "cumm_enrol": 750, "active_cli": 600 }, "geometry": { "type": "Point", "coordinates": [ 38.04965, -2.52946 ] } },
{ "type": "Feature", "properties": { "partner": "Palladium", "county": "Embu", "facility_l": "Level 2-Dispensary", "facility_n": "Nthagaiya Catholic Dispensary", "mfl_code": 12673, "status": "Active", "USG_Agency": "USAID", "mode_of_us": "POC", "emr_in_use": "IQ-CARE", "poc": "POC without paper (paperless)", "lats_y": -0.6845807, "long_x": 37.3540795, "subcounty": "Embu East", "cumm_enrol": 39, "active_cli": 28 }, "geometry": { "type": "Point", "coordinates": [ 37.3540795, -0.6845807 ] } },
{ "type": "Feature", "properties": { "partner": "Palladium", "county": "Kitui", "facility_l": "Level 3-Health centre", "facility_n": "Nuu HC", "mfl_code": 12681, "status": "Active", "USG_Agency": "CDC", "mode_of_us": "Hybrid", "emr_in_use": "IQ-CARE", "poc": "POC with paper", "lats_y": -1.05978, "long_x": 38.35899, "subcounty": "Mwingi East", "cumm_enrol": 140, "active_cli": 110 }, "geometry": { "type": "Point", "coordinates": [ 38.35899, -1.05978 ] } },
{ "type": "Feature", "properties": { "partner": "Palladium", "county": "Makueni", "facility_l": "Level 3-Health centre", "facility_n": "Nziu Health Centre", "mfl_code": 12693, "status": "Partially active", "USG_Agency": "CDC", "mode_of_us": "RDE", "emr_in_use": "IQ-CARE", "poc": null, "lats_y": -1.6718781, "long_x": 37.1941327, "subcounty": "Makueni", "cumm_enrol": 82, "active_cli": 75 }, "geometry": { "type": "Point", "coordinates": [ 37.1941327, -1.6718781 ] } },
{ "type": "Feature", "properties": { "partner": "Palladium", "county": "Embu", "facility_l": "Level 4-Sub-county hospital", "facility_n": "Runyenjes District Hospital", "mfl_code": 12719, "status": "Inactive", "USG_Agency": "USAID", "mode_of_us": "RDE", "emr_in_use": "IQ-CARE", "poc": null, "lats_y": -0.9834183, "long_x": 37.091935, "subcounty": "Embu East", "cumm_enrol": 1605, "active_cli": 639 }, "geometry": { "type": "Point", "coordinates": [ 37.091935, -0.9834183 ] } },
{ "type": "Feature", "properties": { "partner": "Palladium", "county": "Makueni", "facility_l": "Level 4-Sub-county hospital", "facility_n": "Sultan Hamud Sub District Hospital", "mfl_code": 12777, "status": "Partially active", "USG_Agency": "CDC", "mode_of_us": "RDE", "emr_in_use": "IQ-CARE", "poc": null, "lats_y": -2.01646, "long_x": 37.37759, "subcounty": "Mukaa", "cumm_enrol": 870, "active_cli": 789 }, "geometry": { "type": "Point", "coordinates": [ 37.37759, -2.01646 ] } },
{ "type": "Feature", "properties": { "partner": "Palladium", "county": "Kitui", "facility_l": "Level 3-Health centre", "facility_n": "Tei Wa Yesu", "mfl_code": 12789, "status": "Active", "USG_Agency": "USAID", "mode_of_us": "Hybrid", "emr_in_use": "IQ-CARE", "poc": "POC with paper", "lats_y": -0.60788, "long_x": 38.19165, "subcounty": "Kyuso", "cumm_enrol": 200, "active_cli": 120 }, "geometry": { "type": "Point", "coordinates": [ 38.19165, -0.60788 ] } },
{ "type": "Feature", "properties": { "partner": "Palladium", "county": "Embu", "facility_l": "Level 3-Health centre", "facility_n": "Acef Ena Health Centre", "mfl_code": 12791, "status": "Active", "USG_Agency": "USAID", "mode_of_us": "POC", "emr_in_use": "IQ-CARE", "poc": "POC without paper (paperless)", "lats_y": -0.72349, "long_x": 37.32149, "subcounty": "Embu East", "cumm_enrol": 446, "active_cli": 295 }, "geometry": { "type": "Point", "coordinates": [ 37.32149, -0.72349 ] } },
{ "type": "Feature", "properties": { "partner": "Palladium", "county": "Tharaka-Nithi", "facility_l": "Level 4-Sub-county hospital", "facility_n": "Tharaka District Hospital", "mfl_code": 12795, "status": "Partially active", "USG_Agency": "USAID", "mode_of_us": "RDE", "emr_in_use": "IQ-CARE", "poc": null, "lats_y": 0.0507651, "long_x": 37.6431115, "subcounty": "Tharaka South", "cumm_enrol": 716, "active_cli": 430 }, "geometry": { "type": "Point", "coordinates": [ 37.6431115, 0.0507651 ] } },
{ "type": "Feature", "properties": { "partner": "Palladium", "county": "Machakos", "facility_l": "Level 3-Health centre", "facility_n": "Thinu HC", "mfl_code": 12796, "status": "Partially active", "USG_Agency": "CDC", "mode_of_us": "RDE", "emr_in_use": "IQ-CARE", "poc": null, "lats_y": -1.42327, "long_x": 37.27411, "subcounty": "Kathiani", "cumm_enrol": 250, "active_cli": 150 }, "geometry": { "type": "Point", "coordinates": [ 37.27411, -1.42327 ] } },
{ "type": "Feature", "properties": { "partner": "Palladium", "county": "Kitui", "facility_l": "Level 3-Health centre", "facility_n": "Tseikuru SCH", "mfl_code": 12805, "status": "Partially active", "USG_Agency": "CDC", "mode_of_us": "RDE", "emr_in_use": "IQ-CARE", "poc": null, "lats_y": -0.40029, "long_x": 38.22108, "subcounty": "Tseikuru", "cumm_enrol": 700, "active_cli": 400 }, "geometry": { "type": "Point", "coordinates": [ 38.22108, -0.40029 ] } },
{ "type": "Feature", "properties": { "partner": "Palladium", "county": "Kitui", "facility_l": "Level 3-Health centre", "facility_n": "Ukasi HC", "mfl_code": 12821, "status": "Partially active", "USG_Agency": "CDC", "mode_of_us": "RDE", "emr_in_use": "IQ-CARE", "poc": null, "lats_y": -0.80231, "long_x": 38.52583, "subcounty": "Mwingi East", "cumm_enrol": 150, "active_cli": 90 }, "geometry": { "type": "Point", "coordinates": [ 38.52583, -0.80231 ] } },
{ "type": "Feature", "properties": { "partner": "Palladium", "county": "Machakos", "facility_l": "Level 3-Health centre", "facility_n": "Wamunyu Health Centre", "mfl_code": 12841, "status": "Partially active", "USG_Agency": "CDC", "mode_of_us": "RDE", "emr_in_use": "IQ-CARE", "poc": null, "lats_y": -1.5295734, "long_x": 37.2766445, "subcounty": "Mwala", "cumm_enrol": 730, "active_cli": 460 }, "geometry": { "type": "Point", "coordinates": [ 37.2766445, -1.5295734 ] } },
{ "type": "Feature", "properties": { "partner": "Palladium", "county": "Kitui", "facility_l": "Level 3-Health centre", "facility_n": "Winzyeei HC", "mfl_code": 12849, "status": "Partially active", "USG_Agency": "CDC", "mode_of_us": "RDE", "emr_in_use": "IQ-CARE", "poc": null, "lats_y": -0.96706, "long_x": 37.91905, "subcounty": "Mwingi West", "cumm_enrol": 170, "active_cli": 100 }, "geometry": { "type": "Point", "coordinates": [ 37.91905, -0.96706 ] } },
{ "type": "Feature", "properties": { "partner": "Palladium", "county": "Kitui", "facility_l": "Level 3-Health centre", "facility_n": "AIC Zombe", "mfl_code": 12860, "status": "Partially active", "USG_Agency": "CDC", "mode_of_us": "RDE", "emr_in_use": "IQ-CARE", "poc": null, "lats_y": -1.44564, "long_x": 38.24421, "subcounty": "Mutito", "cumm_enrol": 650, "active_cli": 300 }, "geometry": { "type": "Point", "coordinates": [ 38.24421, -1.44564 ] } },
{ "type": "Feature", "properties": { "partner": "Palladium", "county": "Nairobi", "facility_l": "Level 3-Health centre", "facility_n": "Amurt Health Centre", "mfl_code": 12870, "status": "Partially active", "USG_Agency": "USAID", "mode_of_us": "Hybrid", "emr_in_use": "IQ-CARE", "poc": "POC with paper", "lats_y": -1.298778, "long_x": 36.7834403, "subcounty": "Westlands", "cumm_enrol": 978, "active_cli": 786 }, "geometry": { "type": "Point", "coordinates": [ 36.7834403, -1.298778 ] } },
{ "type": "Feature", "properties": { "partner": "Palladium", "county": "Nairobi", "facility_l": "Level 3-Health centre", "facility_n": "APTC Embakasi", "mfl_code": 12871, "status": "Partially active", "USG_Agency": null, "mode_of_us": "RDE", "emr_in_use": "IQ-CARE", "poc": null, "lats_y": -1.28986, "long_x": 36.95761, "subcounty": "Embakasi", "cumm_enrol": 328, "active_cli": 88 }, "geometry": { "type": "Point", "coordinates": [ 36.95761, -1.28986 ] } },
{ "type": "Feature", "properties": { "partner": "Palladium", "county": "Nairobi", "facility_l": "Level 3-Health centre", "facility_n": "Baba Dogo Health Centre", "mfl_code": 12876, "status": "Partially active", "USG_Agency": "CDC", "mode_of_us": "RDE", "emr_in_use": "IQ-CARE", "poc": null, "lats_y": -1.2855607, "long_x": 36.84218, "subcounty": "Kasarani", "cumm_enrol": 3713, "active_cli": 1912 }, "geometry": { "type": "Point", "coordinates": [ 36.84218, -1.2855607 ] } },
{ "type": "Feature", "properties": { "partner": "Palladium", "county": "Nairobi", "facility_l": "Level 3-Health centre", "facility_n": "Bahati Health Centre", "mfl_code": 12879, "status": "Partially active", "USG_Agency": "USAID", "mode_of_us": "RDE", "emr_in_use": "IQ-CARE", "poc": null, "lats_y": -1.2997281, "long_x": 36.7841237, "subcounty": "Kamukunji", "cumm_enrol": 1020, "active_cli": 438 }, "geometry": { "type": "Point", "coordinates": [ 36.7841237, -1.2997281 ] } },
{ "type": "Feature", "properties": { "partner": "Palladium", "county": "Nairobi", "facility_l": "Level 3-Health centre", "facility_n": "Dandora II Health Centre", "mfl_code": 12912, "status": "Partially active", "USG_Agency": "USAID", "mode_of_us": "POC", "emr_in_use": "IQ-CARE", "poc": "POC with paper", "lats_y": -1.2510498, "long_x": 36.9008555, "subcounty": "Njiru", "cumm_enrol": 2119, "active_cli": 1050 }, "geometry": { "type": "Point", "coordinates": [ 36.9008555, -1.2510498 ] } },
{ "type": "Feature", "properties": { "partner": "Palladium", "county": "Nairobi", "facility_l": "Level 5-County\/Refferal hospital", "facility_n": "Getrudes Children Hospital", "mfl_code": 12950, "status": "Active", "USG_Agency": "USAID", "mode_of_us": "RDE", "emr_in_use": "IQ-CARE", "poc": null, "lats_y": -1.2906286, "long_x": 36.873622, "subcounty": "Westlands", "cumm_enrol": 2868, "active_cli": 2042 }, "geometry": { "type": "Point", "coordinates": [ 36.873622, -1.2906286 ] } },
{ "type": "Feature", "properties": { "partner": "Palladium", "county": "Nairobi", "facility_l": "Level 3-Health centre", "facility_n": "GSU Embakasi", "mfl_code": 12962, "status": "Inactive", "USG_Agency": "CDC", "mode_of_us": "RDE", "emr_in_use": "IQ-CARE", "poc": null, "lats_y": -1.3249121, "long_x": 36.8875914, "subcounty": "Embakasi", "cumm_enrol": 147, "active_cli": 107 }, "geometry": { "type": "Point", "coordinates": [ 36.8875914, -1.3249121 ] } },
{ "type": "Feature", "properties": { "partner": "Palladium", "county": "Nairobi", "facility_l": "Level 3-Health centre", "facility_n": "GSU Dispensary Kasarani", "mfl_code": 12963, "status": "Inactive", "USG_Agency": "CDC", "mode_of_us": "RDE", "emr_in_use": "IQ-CARE", "poc": null, "lats_y": -1.255046, "long_x": 36.8543007, "subcounty": "Kasarani", "cumm_enrol": 114, "active_cli": 93 }, "geometry": { "type": "Point", "coordinates": [ 36.8543007, -1.255046 ] } },
{ "type": "Feature", "properties": { "partner": "Palladium", "county": "Nairobi", "facility_l": "Level 3-Health centre", "facility_n": "Kahawa West Health Centre", "mfl_code": 12997, "status": "Partially active", "USG_Agency": "USAID", "mode_of_us": "RDE", "emr_in_use": "IQ-CARE", "poc": null, "lats_y": -1.2987977, "long_x": 36.7834064, "subcounty": "Kasarani", "cumm_enrol": 1680, "active_cli": 769 }, "geometry": { "type": "Point", "coordinates": [ 36.7834064, -1.2987977 ] } },
{ "type": "Feature", "properties": { "partner": "Palladium", "county": "Nairobi", "facility_l": "Other", "facility_n": "The Karen Hospital", "mfl_code": 13004, "status": "Active", "USG_Agency": "USAID", "mode_of_us": "RDE", "emr_in_use": "IQ-CARE", "poc": null, "lats_y": -1.33683, "long_x": 36.7259, "subcounty": "Langata", "cumm_enrol": 374, "active_cli": 168 }, "geometry": { "type": "Point", "coordinates": [ 36.7259, -1.33683 ] } },
{ "type": "Feature", "properties": { "partner": "Palladium", "county": "Nairobi", "facility_l": "Level 4-Sub-county hospital", "facility_n": "Kayole II Sub District Hospital", "mfl_code": 13016, "status": "Partially active", "USG_Agency": "USAID", "mode_of_us": "RDE", "emr_in_use": "IQ-CARE", "poc": null, "lats_y": -1.2950338, "long_x": 36.7985063, "subcounty": "Embakasi", "cumm_enrol": 3209, "active_cli": 1307 }, "geometry": { "type": "Point", "coordinates": [ 36.7985063, -1.2950338 ] } },
{ "type": "Feature", "properties": { "partner": "Palladium", "county": "Nairobi", "facility_l": "Level 3-Health centre", "facility_n": "Soweto-Kayole PHC Clinic", "mfl_code": 13017, "status": "Active", "USG_Agency": "USAID", "mode_of_us": "RDE", "emr_in_use": "IQ-CARE", "poc": null, "lats_y": -1.2937316, "long_x": 36.7940105, "subcounty": "Embakasi", "cumm_enrol": 1104, "active_cli": 642 }, "geometry": { "type": "Point", "coordinates": [ 36.7940105, -1.2937316 ] } },
{ "type": "Feature", "properties": { "partner": "Palladium", "county": "Nairobi", "facility_l": "Other", "facility_n": "AMREF Kibera Clinic", "mfl_code": 13028, "status": "Active", "USG_Agency": "USAID", "mode_of_us": "RDE", "emr_in_use": "IQ-CARE", "poc": null, "lats_y": -1.2906286, "long_x": 36.873622, "subcounty": "Langata", "cumm_enrol": 6271, "active_cli": 2226 }, "geometry": { "type": "Point", "coordinates": [ 36.873622, -1.2906286 ] } },
{ "type": "Feature", "properties": { "partner": "Palladium", "county": "Nairobi", "facility_l": "Level 2-Dispensary", "facility_n": "Kibera South (MSF Belgium) Dispensary", "mfl_code": 13030, "status": "Active", "USG_Agency": null, "mode_of_us": "POC", "emr_in_use": "IQ-CARE", "poc": "POC without paper (paperless)", "lats_y": -1.2988338, "long_x": 36.7833974, "subcounty": "Langata", "cumm_enrol": 13115, "active_cli": 4417 }, "geometry": { "type": "Point", "coordinates": [ 36.7833974, -1.2988338 ] } },
{ "type": "Feature", "properties": { "partner": "Palladium", "county": "Nairobi", "facility_l": "Level 3-Health centre", "facility_n": "Langata Health Centre", "mfl_code": 13041, "status": "Partially active", "USG_Agency": "USAID", "mode_of_us": "RDE", "emr_in_use": "IQ-CARE", "poc": null, "lats_y": -1.2897046, "long_x": 36.8114774, "subcounty": "Langata", "cumm_enrol": 1621, "active_cli": 803 }, "geometry": { "type": "Point", "coordinates": [ 36.8114774, -1.2897046 ] } },
{ "type": "Feature", "properties": { "partner": "Palladium", "county": "Nairobi", "facility_l": "Level 2-Dispensary", "facility_n": "Langata Womens Prison Dispensary", "mfl_code": 13044, "status": "Partially active", "USG_Agency": "CDC", "mode_of_us": "RDE", "emr_in_use": "IQ-CARE", "poc": null, "lats_y": -1.2988652, "long_x": 36.783456, "subcounty": "Langata", "cumm_enrol": 152, "active_cli": 89 }, "geometry": { "type": "Point", "coordinates": [ 36.783456, -1.2988652 ] } },
{ "type": "Feature", "properties": { "partner": "Palladium", "county": "Nairobi", "facility_l": "Level 3-Health centre", "facility_n": "Lunga Lunga Health Center", "mfl_code": 13053, "status": "Partially active", "USG_Agency": "USAID", "mode_of_us": "RDE", "emr_in_use": "IQ-CARE", "poc": null, "lats_y": -1.2997283, "long_x": 36.7841277, "subcounty": "Makadara", "cumm_enrol": 1404, "active_cli": 735 }, "geometry": { "type": "Point", "coordinates": [ 36.7841277, -1.2997283 ] } },
{ "type": "Feature", "properties": { "partner": "Palladium", "county": "Nairobi", "facility_l": "Level 3-Health centre", "facility_n": "Lungalunga Health Centre", "mfl_code": 13053, "status": "Active", "USG_Agency": "USAID", "mode_of_us": "Hybrid", "emr_in_use": "IQ-CARE", "poc": "POC with paper", "lats_y": -1.2984574, "long_x": 36.7820146, "subcounty": "Makadara", "cumm_enrol": 2381, "active_cli": 724 }, "geometry": { "type": "Point", "coordinates": [ 36.7820146, -1.2984574 ] } },
{ "type": "Feature", "properties": { "partner": "Palladium", "county": "Nairobi", "facility_l": "Level 3-Health centre", "facility_n": "Mathare North Health Centre", "mfl_code": 13077, "status": "Partially active", "USG_Agency": "USAID", "mode_of_us": "RDE", "emr_in_use": "IQ-CARE", "poc": null, "lats_y": -1.2988352, "long_x": 36.7834265, "subcounty": "Kasarani", "cumm_enrol": 4990, "active_cli": 3122 }, "geometry": { "type": "Point", "coordinates": [ 36.7834265, -1.2988352 ] } },
{ "type": "Feature", "properties": { "partner": "Palladium", "county": "Nairobi", "facility_l": "Level 2-Dispensary", "facility_n": "M.M.M Mukuru", "mfl_code": 13101, "status": "Partially active", "USG_Agency": "USAID", "mode_of_us": "RDE", "emr_in_use": "IQ-CARE", "poc": null, "lats_y": -1.2929636, "long_x": 36.8051502, "subcounty": "Embakasi", "cumm_enrol": 2222, "active_cli": 715 }, "geometry": { "type": "Point", "coordinates": [ 36.8051502, -1.2929636 ] } },
{ "type": "Feature", "properties": { "partner": "Palladium", "county": "Nairobi", "facility_l": "Level 2-Dispensary", "facility_n": "Nairobi West Men's Prison", "mfl_code": 13116, "status": "Partially active", "USG_Agency": "CDC", "mode_of_us": "RDE", "emr_in_use": "IQ-CARE", "poc": null, "lats_y": -1.2988625, "long_x": 36.7834596, "subcounty": "Langata", "cumm_enrol": 168, "active_cli": 66 }, "geometry": { "type": "Point", "coordinates": [ 36.7834596, -1.2988625 ] } },
{ "type": "Feature", "properties": { "partner": "Palladium", "county": "Nairobi", "facility_l": "Level 2-Dispensary", "facility_n": "Ngaira Dispensary", "mfl_code": 13121, "status": "Partially active", "USG_Agency": "USAID", "mode_of_us": "RDE", "emr_in_use": "IQ-CARE", "poc": null, "lats_y": -1.299745, "long_x": 36.7841125, "subcounty": "Starehe", "cumm_enrol": 1403, "active_cli": 892 }, "geometry": { "type": "Point", "coordinates": [ 36.7841125, -1.299745 ] } },
{ "type": "Feature", "properties": { "partner": "Palladium", "county": "Nairobi", "facility_l": "Level 2-Dispensary", "facility_n": "Ngaira Rhodes Dispensary", "mfl_code": 13121, "status": "Partially active", "USG_Agency": "USAID", "mode_of_us": "Hybrid", "emr_in_use": "IQ-CARE", "poc": "POC with paper", "lats_y": -1.2988782, "long_x": 36.7834385, "subcounty": "Starehe", "cumm_enrol": 1419, "active_cli": 728 }, "geometry": { "type": "Point", "coordinates": [ 36.7834385, -1.2988782 ] } },
{ "type": "Feature", "properties": { "partner": "Palladium", "county": "Nairobi", "facility_l": "Level 2-Dispensary", "facility_n": "NYS Dispensary Kasarani", "mfl_code": 13130, "status": "Inactive", "USG_Agency": "CDC", "mode_of_us": "RDE", "emr_in_use": "IQ-CARE", "poc": null, "lats_y": -1.2791977, "long_x": 36.8763284, "subcounty": "Kasarani", "cumm_enrol": 94, "active_cli": 77 }, "geometry": { "type": "Point", "coordinates": [ 36.8763284, -1.2791977 ] } },
{ "type": "Feature", "properties": { "partner": "Palladium", "county": "Nairobi", "facility_l": "Level 2-Dispensary", "facility_n": "Pumwani Majengo Dispensary", "mfl_code": 13155, "status": "Active", "USG_Agency": null, "mode_of_us": "RDE", "emr_in_use": "IQ-CARE", "poc": null, "lats_y": -1.2538622, "long_x": 36.8565903, "subcounty": "Kamukunji", "cumm_enrol": 875, "active_cli": 673 }, "geometry": { "type": "Point", "coordinates": [ 36.8565903, -1.2538622 ] } },
{ "type": "Feature", "properties": { "partner": "Palladium", "county": "Nairobi", "facility_l": "Level 2-Dispensary", "facility_n": "SWOP Majengo Dispensary", "mfl_code": 13155, "status": "Partially active", "USG_Agency": null, "mode_of_us": "RDE", "emr_in_use": "IQ-CARE", "poc": null, "lats_y": -1.2988495, "long_x": 36.78339, "subcounty": "Kamukunji", "cumm_enrol": 875, "active_cli": 792 }, "geometry": { "type": "Point", "coordinates": [ 36.78339, -1.2988495 ] } },
{ "type": "Feature", "properties": { "partner": "Palladium", "county": "Nairobi", "facility_l": "Level 3-Health centre", "facility_n": "Nairobi Remand Prison Health Centre", "mfl_code": 13161, "status": "Partially active", "USG_Agency": "CDC", "mode_of_us": "RDE", "emr_in_use": "IQ-CARE", "poc": null, "lats_y": -1.2988458, "long_x": 36.783431, "subcounty": "Makadara", "cumm_enrol": 1459, "active_cli": 556 }, "geometry": { "type": "Point", "coordinates": [ 36.783431, -1.2988458 ] } },
{ "type": "Feature", "properties": { "partner": "Palladium", "county": "Nairobi", "facility_l": "Level 3-Health centre", "facility_n": "Mukuru Kwa Reuben Health Centre", "mfl_code": 13173, "status": "Partially active", "USG_Agency": "USAID", "mode_of_us": "RDE", "emr_in_use": "IQ-CARE", "poc": null, "lats_y": -1.31587, "long_x": 36.86903, "subcounty": "Embakasi", "cumm_enrol": 1597, "active_cli": 655 }, "geometry": { "type": "Point", "coordinates": [ 36.86903, -1.31587 ] } },